address,area_sqft,baths,beds,broker_name,city,details_url,id,img_url,latitude,longitude,price,state,status_text,status_type,street,zipcode
"641 Sabal Palm Rd, Miami, FL 33137",4619,5.0,5,"Compass Florida, LLC",Miami,https://www.zillow.com/homedetails/641-Sabal-Palm-Rd-Miami-FL-33137/43830091_zpid/,43830091,https://photos.zillowstatic.com/fp/97a4303358c98e0bd57f68bab141bf26-p_e.jpg,25.816685,-80.18415,"$5,300,000",FL,House for sale,FOR_SALE,641 Sabal Palm Rd,33137
"1300 S Miami Ave UNIT 2302, Miami, FL 33130",1088,2.0,2,Global Luxury Realty LLC,Miami,https://www.zillow.com/homedetails/1300-S-Miami-Ave-UNIT-2302-Miami-FL-33130/247652798_zpid/,247652798,https://photos.zillowstatic.com/fp/4ee8b5adde509ff078344fe2533975ae-p_e.jpg,25.761328,-80.19377,"$828,000",FL,Condo for sale,FOR_SALE,1300 S Miami Ave UNIT 2302,33130
"485 Brickell Ave APT 3502, Miami, FL 33131",1386,2.0,2,The Keyes Company,Miami,https://www.zillow.com/homedetails/485-Brickell-Ave-APT-3502-Miami-FL-33131/2075900605_zpid/,2075900605,https://photos.zillowstatic.com/fp/1275447655e648bd9b8f2df8a5d1f03a-p_e.jpg,25.768652,-80.18913,"$1,100,000",FL,Condo for sale,FOR_SALE,485 Brickell Ave APT 3502,33131
"55 SE 6th St APT 4104, Miami, FL 33131",738,1.0,1,Douglas Elliman,Miami,https://www.zillow.com/homedetails/55-SE-6th-St-APT-4104-Miami-FL-33131/92438407_zpid/,92438407,https://photos.zillowstatic.com/fp/e44a9e46c1fb29b0003462c087b39a24-p_e.jpg,25.76855,-80.19139,"$480,000",FL,Condo for sale,FOR_SALE,55 SE 6th St APT 4104,33131
"1300 Brickell Bay Dr APT 2609, Miami, FL 33131",997,2.0,2,"Loji Realty, Inc.",Miami,https://www.zillow.com/homedetails/1300-Brickell-Bay-Dr-APT-2609-Miami-FL-33131/121343762_zpid/,121343762,https://photos.zillowstatic.com/fp/608abb0d2b51e0c9b6f1d168164b67a6-p_e.jpg,25.760386,-80.190346,"$730,000",FL,Condo for sale,FOR_SALE,1300 Brickell Bay Dr APT 2609,33131
"8794 SW 12th St APT 108, Miami, FL 33174",670,1.0,1,Westside Estate Agency Florida,Miami,https://www.zillow.com/homedetails/8794-SW-12th-St-APT-108-Miami-FL-33174/66177120_zpid/,66177120,https://photos.zillowstatic.com/fp/47b5af9e18e0aece91b77e16c3ddc906-p_e.jpg,25.757652,-80.337296,"$205,000",FL,Condo for sale,FOR_SALE,8794 SW 12th St APT 108,33174
"300 Biscayne Blvd #LL02, Miami, FL 33131",1213,3.0,2,One Sotheby's International Realty,Miami,https://www.zillow.com/homedetails/300-Biscayne-Blvd-LL02-Miami-FL-33131/2066409649_zpid/,2066409649,https://photos.zillowstatic.com/fp/eed0642686f6d0bf87fc0fc9137c8bce-p_e.jpg,25.771225,-80.18724,"$549,000",FL,Condo for sale,FOR_SALE,300 Biscayne Blvd #LL02,33131
"690 SW 1st Ct APT 1704, Miami, FL 33130",795,2.0,0,Global Prestige Real Estate LLC,Miami,https://www.zillow.com/homedetails/690-SW-1st-Ct-APT-1704-Miami-FL-33130/72566357_zpid/,72566357,https://photos.zillowstatic.com/fp/2ef3edf59cae5e9e09ade52effdf7428-p_e.jpg,25.767841,-80.19623,"$410,000",FL,Condo for sale,FOR_SALE,690 SW 1st Ct APT 1704,33130
"300 Biscayne Blvd #T3607, Miami, FL 33131",733,2.0,1,Fortune International Realty,Miami,https://www.zillow.com/homedetails/300-Biscayne-Blvd-T3607-Miami-FL-33131/2066409952_zpid/,2066409952,https://photos.zillowstatic.com/fp/a775345feced4184914e40ae70805e59-p_e.jpg,25.771225,-80.18724,"$389,000",FL,Condo for sale,FOR_SALE,300 Biscayne Blvd #T3607,33131
"300 S Biscayne Blvd #T-3314, Miami, FL 33131",1006,2.0,2,Fortune International Realty,Miami,https://www.zillow.com/homedetails/300-S-Biscayne-Blvd-T-3314-Miami-FL-33131/92450717_zpid/,92450717,https://photos.zillowstatic.com/fp/d1d02a569bf109f4eb03d2af64d1d002-p_e.jpg,25.771225,-80.18724,"$619,000",FL,Condo for sale,FOR_SALE,300 S Biscayne Blvd #T-3314,33131
"488 NE 18th St #506/508, Miami, FL 33132",,5.0,4,Coldwell Banker Realty,Miami,https://www.zillow.com/homedetails/488-NE-18th-St-506-508-Miami-FL-33132/2066411420_zpid/,2066411420,https://photos.zillowstatic.com/fp/237b5fce5323412594139184e6ac91bb-p_e.jpg,25.79351,-80.18751,"$3,500,000",FL,Condo for sale,FOR_SALE,488 NE 18th St #506/508,33132
"480 NE 31st St UNIT 1903, Miami, FL 33137",1187,3.0,2,Charles Rutenberg Realty Fort,Miami,https://www.zillow.com/homedetails/480-NE-31st-St-UNIT-1903-Miami-FL-33137/331696931_zpid/,331696931,https://photos.zillowstatic.com/fp/3f17a49275c7a1fdcd819e34c5e6d95e-p_e.jpg,25.80619,-80.18672,"$950,000",FL,Condo for sale,FOR_SALE,480 NE 31st St UNIT 1903,33137
"1901 SW 74th Avenue Rd, Miami, FL 33155",1096,1.0,3,RE/MAX United Realty,Miami,https://www.zillow.com/homedetails/1901-SW-74th-Avenue-Rd-Miami-FL-33155/44184358_zpid/,44184358,https://photos.zillowstatic.com/fp/d179989dfcf0905b9e357a59afd58554-p_e.jpg,25.752739,-80.31689,"$499,000",FL,House for sale,FOR_SALE,1901 SW 74th Avenue Rd,33155
"816 NW 11th St APT 604, Miami, FL 33136",580,1.0,1,Doral Service Realty Inc.,Miami,https://www.zillow.com/homedetails/816-NW-11th-St-APT-604-Miami-FL-33136/70763179_zpid/,70763179,https://photos.zillowstatic.com/fp/920a64e38ac0e0f3795337f75ab17c2c-p_e.jpg,25.783781,-80.20879,"$240,000",FL,Condo for sale,FOR_SALE,816 NW 11th St APT 604,33136
"244 Biscayne Blvd APT 4004, Miami, FL 33132",1293,2.0,2,Global Luxury Realty LLC,Miami,https://www.zillow.com/homedetails/244-Biscayne-Blvd-APT-4004-Miami-FL-33132/92444886_zpid/,92444886,https://photos.zillowstatic.com/fp/a96f1c54f7e90c6bb3985589a2d665e6-p_e.jpg,25.776546,-80.18852,"$724,000",FL,Condo for sale,FOR_SALE,244 Biscayne Blvd APT 4004,33132
"665 NE 25th St APT 2103, Miami, FL 33137",1285,3.0,2,Douglas Elliman,Miami,https://www.zillow.com/homedetails/665-NE-25th-St-APT-2103-Miami-FL-33137/82410374_zpid/,82410374,https://photos.zillowstatic.com/fp/30ad41b3052ffb7d2d50cfe4357d6e3b-p_e.jpg,25.80134,-80.18571,"$799,000",FL,Condo for sale,FOR_SALE,665 NE 25th St APT 2103,33137
"540 Brickell Key Dr APT 823, Miami, FL 33131",1030,2.0,2,BHHS EWM Realty,Miami,https://www.zillow.com/homedetails/540-Brickell-Key-Dr-APT-823-Miami-FL-33131/43872932_zpid/,43872932,https://photos.zillowstatic.com/fp/2f28f9f3c6223f4deb00ead39dde2e8f-p_e.jpg,25.768097,-80.183846,"$680,000",FL,Condo for sale,FOR_SALE,540 Brickell Key Dr APT 823,33131
"1155 Brickell Bay Dr APT 1204, Miami, FL 33131",1510,2.0,3,"Blue Lighthouse Realty, INC",Miami,https://www.zillow.com/homedetails/1155-Brickell-Bay-Dr-APT-1204-Miami-FL-33131/60793470_zpid/,60793470,https://photos.zillowstatic.com/fp/114a5fd888d9a063d4a7e9379d1bd749-p_e.jpg,25.76216,-80.18911,"$849,999",FL,Condo for sale,FOR_SALE,1155 Brickell Bay Dr APT 1204,33131
"1819 NW 57th St, Miami, FL 33142",726,1.0,2,Monteriny Properties Corporation,Miami,https://www.zillow.com/homedetails/1819-NW-57th-St-Miami-FL-33142/43810912_zpid/,43810912,https://photos.zillowstatic.com/fp/565215bd2de0180af707d6e26ff7c102-p_e.jpg,25.827509,-80.227196,"$324,500",FL,House for sale,FOR_SALE,1819 NW 57th St,33142
"92 SW 3rd St APT 4010, Miami, FL 33130",1389,3.0,2,Affinity International Realty,Miami,https://www.zillow.com/homedetails/92-SW-3rd-St-APT-4010-Miami-FL-33130/119405845_zpid/,119405845,https://photos.zillowstatic.com/fp/115153eed5330729334b7dbae43d327a-p_e.jpg,25.769499,-80.19582,"$650,000",FL,Condo for sale,FOR_SALE,92 SW 3rd St APT 4010,33130
"3540 Main Hwy #204, Miami, FL 33133",983,2.0,1,"Echarte-Morini Realty, Inc.",Miami,https://www.zillow.com/homedetails/3540-Main-Hwy-204-Miami-FL-33133/72580179_zpid/,72580179,https://photos.zillowstatic.com/fp/a8fcc1f64f9ff4ccffd9116a4cc34650-p_e.jpg,25.72514,-80.245476,"$650,000",FL,Condo for sale,FOR_SALE,3540 Main Hwy #204,33133
"(undisclosed Address), Miami, FL 33137",1174,3.0,2,"Related ISG Realty, LLC.",Miami,https://www.zillow.com/homedetails/Miami-FL-33137/70773796_zpid/,70773796,https://photos.zillowstatic.com/fp/7846b6af8efa77515a582cd05b1a486f-p_e.jpg,,,"$799,999",FL,Condo for sale,FOR_SALE,(undisclosed Address),33137
"1250 S Miami Ave APT 1213, Miami, FL 33130",737,1.0,1,Choice Point Realty,Miami,https://www.zillow.com/homedetails/1250-S-Miami-Ave-APT-1213-Miami-FL-33130/70767357_zpid/,70767357,https://photos.zillowstatic.com/fp/47b9d06e1af1166dc276c0f7de46f3de-p_e.jpg,25.762094,-80.19355,"$350,000",FL,Condo for sale,FOR_SALE,1250 S Miami Ave APT 1213,33130
"Reach Penthouse 4201-4301 Plan, Reach & Rise Signature Residences",4385,5.0,4,,Miami,https://www.zillow.com/community/reach-rise-signature-residences/2066423313_zpid/,2066423313,https://photos.zillowstatic.com/fp/c0a6bc3aa469fd24985c3faac94a388b-p_e.jpg,25.767197,-80.19451,"$6,200,000+",FL,New construction,FOR_SALE,"Reach Penthouse 4201-4301 Plan, Reach & Rise Signature Residences",33130
"Rise Penthouse 4302 Plan, Reach & Rise Signature Residences",2686,5.0,3,,Miami,https://www.zillow.com/community/reach-rise-signature-residences/2066423318_zpid/,2066423318,https://photos.zillowstatic.com/fp/48116c32fd651df5e87b0d13f7c99470-p_e.jpg,25.767197,-80.19451,"$4,125,000+",FL,New construction,FOR_SALE,"Rise Penthouse 4302 Plan, Reach & Rise Signature Residences",33130
"Reach Penthouse 4202 - 4302 Plan, Reach & Rise Signature Residences",2684,5.0,3,,Miami,https://www.zillow.com/community/reach-rise-signature-residences/2066423314_zpid/,2066423314,https://photos.zillowstatic.com/fp/7e42bf7c51eb4ae1d62a29f8ae1dd8dd-p_e.jpg,25.767197,-80.19451,"$3,950,000+",FL,New construction,FOR_SALE,"Reach Penthouse 4202 - 4302 Plan, Reach & Rise Signature Residences",33130
"31 SE 5th St APT 3416, Miami, FL 33131",1335,3.0,2,Affinity International Realty,Miami,https://www.zillow.com/homedetails/31-SE-5th-St-APT-3416-Miami-FL-33131/70775578_zpid/,70775578,https://photos.zillowstatic.com/fp/e2f038f8f11e29985baf56219def9b5f-p_e.jpg,25.76968,-80.191605,"$679,000",FL,Condo for sale,FOR_SALE,31 SE 5th St APT 3416,33131
"9930 SW 142nd St, Miami, FL 33176",2637,3.0,4,Coldwell Banker Realty,Miami,https://www.zillow.com/homedetails/9930-SW-142nd-St-Miami-FL-33176/44291081_zpid/,44291081,https://photos.zillowstatic.com/fp/39731b7aae5bed9aec7635641153cac7-p_e.jpg,25.637423,-80.35567,"$1,100,000",FL,House for sale,FOR_SALE,9930 SW 142nd St,33176
"121 NE 34th St UNIT 2504, Miami, FL 33137",1096,2.0,2,Avanti Way Realty LLC,Miami,https://www.zillow.com/homedetails/121-NE-34th-St-UNIT-2504-Miami-FL-33137/306397203_zpid/,306397203,https://photos.zillowstatic.com/fp/c38def7df0d1bfe0a0eedeb19e0c1d0e-p_e.jpg,25.808714,-80.19209,"$950,000",FL,Condo for sale,FOR_SALE,121 NE 34th St UNIT 2504,33137
"288 NW 58th St, Miami, FL 33127",1672,3.0,5,"Real Estate Miami, Inc",Miami,https://www.zillow.com/homedetails/288-NW-58th-St-Miami-FL-33127/43808015_zpid/,43808015,https://photos.zillowstatic.com/fp/322a4f1e6505735240160a2cd1c1351f-p_e.jpg,25.828537,-80.20189,"$850,000",FL,House for sale,FOR_SALE,288 NW 58th St,33127
"3373 Thomas Ave, Miami, FL 33133",,,,Onepath Realty LLC,Miami,https://www.zillow.com/homedetails/3373-Thomas-Ave-Miami-FL-33133/43861309_zpid/,43861309,https://photos.zillowstatic.com/fp/81334e5232bb7ebdd7078c5193b85924-p_e.jpg,25.727365,-80.24788,"$2,000,000",FL,Lot / Land for sale,FOR_SALE,3373 Thomas Ave,33133
"7757 SW 86th St APT C-415, Miami, FL 33143",,2.0,2,"Mia Realty, Corp.",Miami,https://www.zillow.com/homedetails/7757-SW-86th-St-APT-C-415-Miami-FL-33143/44222477_zpid/,44222477,https://photos.zillowstatic.com/fp/3be06c7068225385dcb7bb3745b72645-p_e.jpg,25.691145,-80.31942,$260K,FL,Auction,FOR_SALE,7757 SW 86th St APT C-415,33143
"2550 NW 28th St APT 801, Miami, FL 33142",940,2.0,2,"Real Estate Craft, LLC.",Miami,https://www.zillow.com/homedetails/2550-NW-28th-St-APT-801-Miami-FL-33142/2066424708_zpid/,2066424708,https://photos.zillowstatic.com/fp/0458e37dbc938fa57791c57dd278cee3-p_e.jpg,25.800772,-80.2389,"$230,000",FL,Townhouse for sale,FOR_SALE,2550 NW 28th St APT 801,33142
"3250 NE 1st Ave APT 519, Miami, FL 33137",736,1.0,1,Real Estate Investments by Borrero Corp,Miami,https://www.zillow.com/homedetails/3250-NE-1st-Ave-APT-519-Miami-FL-33137/122018742_zpid/,122018742,https://photos.zillowstatic.com/fp/6094cb1ddbfd6815eba79df9dfec6ea9-p_e.jpg,25.807016,-80.19333,"$450,000",FL,Condo for sale,FOR_SALE,3250 NE 1st Ave APT 519,33137
"801 S Miami Ave #1007, Miami, FL 33130",870,2.0,1,Miami Life Realty LLC,Miami,https://www.zillow.com/homedetails/801-S-Miami-Ave-1007-Miami-FL-33130/2089739459_zpid/,2089739459,https://photos.zillowstatic.com/fp/560317fb25db6109689f79877b37398c-p_e.jpg,25.7659,-80.17097,"$610,000",FL,Condo for sale,FOR_SALE,801 S Miami Ave #1007,33130
"201 SW 62nd Ave, Miami, FL 33144",1221,2.0,2,Onepath Realty LLC,Miami,https://www.zillow.com/homedetails/201-SW-62nd-Ave-Miami-FL-33144/43835634_zpid/,43835634,https://photos.zillowstatic.com/fp/f63ad81396d1af5e3dd5ad83aa0fa6c5-p_e.jpg,25.76867,-80.29578,"$399,000",FL,House for sale,FOR_SALE,201 SW 62nd Ave,33144
"1717 N Bayshore Dr #A-1239, Miami, FL 33132",1066,2.0,1,Coldwell Banker Realty,Miami,https://www.zillow.com/homedetails/1717-N-Bayshore-Dr-A-1239-Miami-FL-33132/43832367_zpid/,43832367,https://photos.zillowstatic.com/fp/d2ac8855b48771b71d065de9241e4ab1-p_e.jpg,25.791523,-80.18616,"$395,000",FL,Condo for sale,FOR_SALE,1717 N Bayshore Dr #A-1239,33132
"3000 Coral Way APT 719, Miami, FL 33145",785,1.0,1,Fortune International Realty B,Miami,https://www.zillow.com/homedetails/3000-Coral-Way-APT-719-Miami-FL-33145/63831108_zpid/,63831108,https://photos.zillowstatic.com/fp/51a4d883edb230faf79616fcf0d68811-p_e.jpg,25.74947,-80.24225,"$275,000",FL,Condo for sale,FOR_SALE,3000 Coral Way APT 719,33145
"788 NE 23rd St #3701, Miami, FL 33137",3471,6.0,5,Cervera Real Estate Inc.,Miami,https://www.zillow.com/homedetails/788-NE-23rd-St-3701-Miami-FL-33137/2066425993_zpid/,2066425993,https://photos.zillowstatic.com/fp/47a97003c77c2fd0521606bb4aabc7d3-p_e.jpg,25.799013,-80.18584,"$3,995,000",FL,New construction,FOR_SALE,788 NE 23rd St #3701,33137
"1100 S Miami Ave APT 3503, Miami, FL 33130",923,1.0,1,"Related ISG Realty, LLC.",Miami,https://www.zillow.com/homedetails/1100-S-Miami-Ave-APT-3503-Miami-FL-33130/121347533_zpid/,121347533,https://photos.zillowstatic.com/fp/a7ec9f9316caa972fc53177211c51973-p_e.jpg,25.763214,-80.19366,"$500,000",FL,Condo for sale,FOR_SALE,1100 S Miami Ave APT 3503,33130
"3900 Biscayne Blvd #S510, Miami, FL 33137",795,1.0,1,Fortune International Realty B,Miami,https://www.zillow.com/homedetails/3900-Biscayne-Blvd-S510-Miami-FL-33137/2070869521_zpid/,2070869521,"https://maps.googleapis.com/maps/api/staticmap?mobile=false&sensor=true&maptype=satellite&size=575x242&zoom=17&center=25.813833236694336,-80.18961334228516&key=AIzaSyBJsNQO5ZeG-XAbqqWLKwG08fWITSxg33w&signature=_688QJfRpCQTIq5orFLLNQTdi4Y=",,,"$715,000",FL,Condo for sale,FOR_SALE,3900 Biscayne Blvd #S510,33137
"55 SE 6th St APT 4303, Miami, FL 33131",1111,2.0,2,Macken Realty Inc,Miami,https://www.zillow.com/homedetails/55-SE-6th-St-APT-4303-Miami-FL-33131/92442413_zpid/,92442413,https://photos.zillowstatic.com/fp/5159394b221d471605c26df2602c1820-p_e.jpg,25.76855,-80.19139,"$749,000",FL,Condo for sale,FOR_SALE,55 SE 6th St APT 4303,33131
"3192 SW 25th Ter, Miami, FL 33133",2102,,,Horizon Homes Realty Corp,Miami,https://www.zillow.com/homedetails/3192-SW-25th-Ter-Miami-FL-33133/43858045_zpid/,43858045,https://photos.zillowstatic.com/fp/8656df839ca505ffdb6bee3a3db056e4-p_e.jpg,25.743748,-80.245384,"$800,000",FL,Multi-family home for sale,FOR_SALE,3192 SW 25th Ter,33133
"999 SW 1st Ave APT 2903, Miami, FL 33130",937,1.0,1,Amerigo International,Miami,https://www.zillow.com/homedetails/999-SW-1st-Ave-APT-2903-Miami-FL-33130/162032547_zpid/,162032547,https://photos.zillowstatic.com/fp/55915322bba47365294fef6be53efe00-p_e.jpg,25.764952,-80.19461,"$599,500",FL,Condo for sale,FOR_SALE,999 SW 1st Ave APT 2903,33130
"485 Brickell Ave APT 1701, Miami, FL 33131",898,1.0,1,Coldwell Banker Realty,Miami,https://www.zillow.com/homedetails/485-Brickell-Ave-APT-1701-Miami-FL-33131/2071291306_zpid/,2071291306,https://photos.zillowstatic.com/fp/dfa384205ee7fd1f1efb4c06a00e32b9-p_e.jpg,25.768652,-80.18913,"$650,000",FL,Condo for sale,FOR_SALE,485 Brickell Ave APT 1701,33131
"79 SW 12th St APT 1703, Miami, FL 33130",1013,2.0,2,"Interinvestments Realty, Inc.",Miami,https://www.zillow.com/homedetails/79-SW-12th-St-APT-1703-Miami-FL-33130/92437329_zpid/,92437329,https://photos.zillowstatic.com/fp/7829ce6a09e221e6340fa11626888fe8-p_e.jpg,25.763243,-80.194984,"$525,000",FL,Condo for sale,FOR_SALE,79 SW 12th St APT 1703,33130
"2749 NW 29th St, Miami, FL 33142",1000,,,JV Realty Services,Miami,https://www.zillow.com/homedetails/2749-NW-29th-St-Miami-FL-33142/44162754_zpid/,44162754,https://photos.zillowstatic.com/fp/bda164d113c94d009c1a0cfc0cf726f1-p_e.jpg,25.802843,-80.241264,"$360,000",FL,Multi-family home for sale,FOR_SALE,2749 NW 29th St,33142
"2121 SW 61st Ave, Miami, FL 33155",2035,3.0,3,Florida Realty of Miami Corp,Miami,https://www.zillow.com/homedetails/2121-SW-61st-Ave-Miami-FL-33155/44186941_zpid/,44186941,https://photos.zillowstatic.com/fp/16bfa8a22de15c6531f9d41eae49c78f-p_e.jpg,25.750608,-80.2942,"$1,299,000",FL,House for sale,FOR_SALE,2121 SW 61st Ave,33155
"11391 SW 74th Ter, Miami, FL 33173",1528,2.0,3,Florida Realty of Miami Corp,Miami,https://www.zillow.com/homedetails/11391-SW-74th-Ter-Miami-FL-33173/44216793_zpid/,44216793,https://photos.zillowstatic.com/fp/beb72e1264b4ca6ccd8165c3c35c7e7c-p_e.jpg,25.698368,-80.377945,"$675,000",FL,House for sale,FOR_SALE,11391 SW 74th Ter,33173
"550 SW 16th Ave, Miami, FL 33135",1718,,,Lapeyre Realty Inc,Miami,https://www.zillow.com/homedetails/550-SW-16th-Ave-Miami-FL-33135/2066428245_zpid/,2066428245,https://photos.zillowstatic.com/fp/4854bcd7f24e37efc45565bef0bac7c9-p_e.jpg,25.76761,-80.221436,"$667,000",FL,Multi-family home for sale,FOR_SALE,550 SW 16th Ave,33135
"3664 SW 16th St, Miami, FL 33145",1292,2.0,3,One Sotheby's International Realty,Miami,https://www.zillow.com/homedetails/3664-SW-16th-St-Miami-FL-33145/43848446_zpid/,43848446,https://photos.zillowstatic.com/fp/82c629b83e9b29e2346cc9f9bf52dab5-p_e.jpg,25.75705,-80.25411,"$723,000",FL,House for sale,FOR_SALE,3664 SW 16th St,33145
"7249 SW 53rd Ave, Miami, FL 33143",2531,3.0,4,RE/MAX Advance Realty,Miami,https://www.zillow.com/homedetails/7249-SW-53rd-Ave-Miami-FL-33143/44226056_zpid/,44226056,https://photos.zillowstatic.com/fp/9559b549b7dc529934980f772084039a-p_e.jpg,25.703707,-80.278725,"$1,600,000",FL,House for sale,FOR_SALE,7249 SW 53rd Ave,33143
"88 SW 7th St APT 1902, Miami, FL 33130",1655,4.0,3,"BMore Group, LLC",Miami,https://www.zillow.com/homedetails/88-SW-7th-St-APT-1902-Miami-FL-33130/247679782_zpid/,247679782,https://photos.zillowstatic.com/fp/bd684ee068d06cc63e7c66869430560e-p_e.jpg,25.76704,-80.194496,"$1,599,000",FL,Condo for sale,FOR_SALE,88 SW 7th St APT 1902,33130
"649 NW 45th St, Miami, FL 33127",1770,,,Beachfront Realty Inc,Miami,https://www.zillow.com/homedetails/649-NW-45th-St-Miami-FL-33127/43813751_zpid/,43813751,https://photos.zillowstatic.com/fp/1f0403cf041e1f42e8b4abba136e28bd-p_e.jpg,25.816984,-80.206985,"$749,000",FL,Multi-family home for sale,FOR_SALE,649 NW 45th St,33127
"13730 SW 147th Circle Ln #1, Miami, FL 33186",979,2.0,2,Avanti Way Realty LLC,Miami,https://www.zillow.com/homedetails/13730-SW-147th-Circle-Ln-1-Miami-FL-33186/2066429588_zpid/,2066429588,https://photos.zillowstatic.com/fp/aa51aaee785e33d0ffa230ce2e0c50eb-p_e.jpg,25.630987,-80.417305,"$370,000",FL,Condo for sale,FOR_SALE,13730 SW 147th Circle Ln #1,33186
"11219 SW 88th St APT C208, Miami, FL 33176",986,2.0,2,"Compass Florida, LLC",Miami,https://www.zillow.com/homedetails/11219-SW-88th-St-APT-C208-Miami-FL-33176/2093393130_zpid/,2093393130,https://photos.zillowstatic.com/fp/63f49981a1700919deb7fa6627fa7ae5-p_e.jpg,25.68845,-80.37491,"$239,000",FL,Condo for sale,FOR_SALE,11219 SW 88th St APT C208,33176
"1600 SW 1st Ave APT 601, Miami, FL 33129",1352,3.0,3,Fortune International Realty,Miami,https://www.zillow.com/homedetails/1600-SW-1st-Ave-APT-601-Miami-FL-33129/155818259_zpid/,155818259,https://photos.zillowstatic.com/fp/5503a86cc421a5e1adb01e68e7686044-p_e.jpg,25.790707,-80.19238,"$865,000",FL,Condo for sale,FOR_SALE,1600 SW 1st Ave APT 601,33129
"1111 SW 1st Ave APT 2823, Miami, FL 33130",1013,2.0,2,"Interinvestments Realty, Inc.",Miami,https://www.zillow.com/homedetails/1111-SW-1st-Ave-APT-2823-Miami-FL-33130/2103375278_zpid/,2103375278,https://photos.zillowstatic.com/fp/5b734e198ea2f22e0692bdb59a4a42a3-p_e.jpg,25.76305,-80.19455,"$525,000",FL,Condo for sale,FOR_SALE,1111 SW 1st Ave APT 2823,33130
"(undisclosed Address), Miami, FL 33131",,2.0,2,A & D Group Realty  LLC,Miami,https://www.zillow.com/homedetails/Miami-FL-33131/2066430613_zpid/,2066430613,https://photos.zillowstatic.com/fp/fe785b9ea64d7ceabb864906fa863e2b-p_e.jpg,,,"$590,000",FL,Condo for sale,FOR_SALE,(undisclosed Address),33131
"5241 NW 5th St, Miami, FL 33126",3700,,,Compass Florida LLC,Miami,https://www.zillow.com/homedetails/5241-NW-5th-St-Miami-FL-33126/43845422_zpid/,43845422,https://photos.zillowstatic.com/fp/d1a6fdb83b19a95a866cd619a72c6340-p_e.jpg,25.777216,-80.28094,"$700,000",FL,Multi-family home for sale,FOR_SALE,5241 NW 5th St,33126
"701 Brickell Key Blvd APT 1509, Miami, FL 33131",1257,3.0,2,BHHS EWM Realty,Miami,https://www.zillow.com/homedetails/701-Brickell-Key-Blvd-APT-1509-Miami-FL-33131/70776139_zpid/,70776139,https://photos.zillowstatic.com/fp/da1d85cb4b196a37f1ba2de394350c9e-p_e.jpg,25.767956,-80.186386,"$780,000",FL,Condo for sale,FOR_SALE,701 Brickell Key Blvd APT 1509,33131
"200 Biscayne Boulevard Way APT 3702, Miami, FL 33131",1539,3.0,2,Edivial International Realty,Miami,https://www.zillow.com/homedetails/200-Biscayne-Boulevard-Way-APT-3702-Miami-FL-33131/2135662471_zpid/,2135662471,https://photos.zillowstatic.com/fp/e36bc7646a9489bd81b00b84951bde4b-p_e.jpg,25.772196,-80.18813,"$1,250,000",FL,Condo for sale,FOR_SALE,200 Biscayne Boulevard Way APT 3702,33131
"3330 SW 28th Ter #3330, Miami, FL 33133",2330,3.0,3,One Sotheby's International Realty,Miami,https://www.zillow.com/homedetails/3330-SW-28th-Ter-3330-Miami-FL-33133/2066431495_zpid/,2066431495,https://photos.zillowstatic.com/fp/3f8ad15c9b5a7d8cfa33fe7f333a50ed-p_e.jpg,25.737953,-80.248566,"$1,199,000",FL,New construction,FOR_SALE,3330 SW 28th Ter #3330,33133
"10852 SW 88th St APT 314, Miami, FL 33176",1242,2.0,2,Gilvan Realty Corp.,Miami,https://www.zillow.com/homedetails/10852-SW-88th-St-APT-314-Miami-FL-33176/44278649_zpid/,44278649,https://photos.zillowstatic.com/fp/10ca12f6626a4aef0144781abf273e2c-p_e.jpg,25.685291,-80.36967,"$280,000",FL,Condo for sale,FOR_SALE,10852 SW 88th St APT 314,33176
"12151 SW 123rd Pl #0, Miami, FL 33186",2310,3.0,4,Coldwell Banker Realty,Miami,https://www.zillow.com/homedetails/12151-SW-123rd-Pl-0-Miami-FL-33186/2083086682_zpid/,2083086682,https://photos.zillowstatic.com/fp/40fa744d2097ba33b95765878b70a0e2-p_e.jpg,25.655176,-80.39442,"$495,000",FL,Townhouse for sale,FOR_SALE,12151 SW 123rd Pl #0,33186
"7840 SW 32nd St, Miami, FL 33155",1710,2.0,4,London Foster Realty,Miami,https://www.zillow.com/homedetails/7840-SW-32nd-St-Miami-FL-33155/44192142_zpid/,44192142,https://photos.zillowstatic.com/fp/d96ec19584b55fccf9570fd745668ed1-p_e.jpg,25.740314,-80.3225,"$649,900",FL,House for sale,FOR_SALE,7840 SW 32nd St,33155
"2035 SW 58th Ct, Miami, FL 33155",1923,3.0,3,BrokerNation Real Estate,Miami,https://www.zillow.com/homedetails/2035-SW-58th-Ct-Miami-FL-33155/44186613_zpid/,44186613,https://photos.zillowstatic.com/fp/4b47c0e93718e6e7b394b0c3a56c5d86-p_e.jpg,25.75121,-80.290146,"$799,000",FL,House for sale,FOR_SALE,2035 SW 58th Ct,33155
"3370 SW 27th St, Miami, FL 33133",2450,3.0,3,FlatFee.com,Miami,https://www.zillow.com/homedetails/3370-SW-27th-St-Miami-FL-33133/43858708_zpid/,43858708,https://photos.zillowstatic.com/fp/25545c271005c184aebb11970d9260fe-p_e.jpg,25.741398,-80.24928,"$819,000",FL,New construction,FOR_SALE,3370 SW 27th St,33133
"950 Brickell Bay Dr APT 4801, Miami, FL 33131",774,1.0,1,Capital Intl Realty LLC,Miami,https://www.zillow.com/homedetails/950-Brickell-Bay-Dr-APT-4801-Miami-FL-33131/92447831_zpid/,92447831,https://photos.zillowstatic.com/fp/176f74ec4c319563a901dace81d0438f-p_e.jpg,25.765005,-80.19016,"$499,000",FL,Condo for sale,FOR_SALE,950 Brickell Bay Dr APT 4801,33131
"3-Bedroom SKY Collection - Floors 81-88 R3 Plan, Waldorf Astoria Residences",2408,4.0,3,,Miami,https://www.zillow.com/community/waldorf-astoria-residences/2066534595_zpid/,2066534595,https://photos.zillowstatic.com/fp/7c34789e855abcec10345fd0606c971e-p_e.jpg,25.777695,-80.1887,"$4,625,268+",FL,New construction,FOR_SALE,"3-Bedroom SKY Collection - Floors 81-88 R3 Plan, Waldorf Astoria Residences",33130
"1420 SW 12th St, Miami, FL 33135",1927,2.0,3,"Island Living Realty, LLC",Miami,https://www.zillow.com/homedetails/1420-SW-12th-St-Miami-FL-33135/43853144_zpid/,43853144,https://photos.zillowstatic.com/fp/56bc98dc462b8484971233996b1681df-p_e.jpg,25.761534,-80.21859,"$1,299,000",FL,House for sale,FOR_SALE,1420 SW 12th St,33135
"1841 NW 55th St, Miami, FL 33142",1326,,,BHHS EWM Realty,Miami,https://www.zillow.com/homedetails/1841-NW-55th-St-Miami-FL-33142/43811040_zpid/,43811040,https://photos.zillowstatic.com/fp/a7c6cc6c367fd3b84e38be9fda33d58d-p_e.jpg,25.82535,-80.22741,"$449,000",FL,Multi-family home for sale,FOR_SALE,1841 NW 55th St,33142
"1300 S Miami Ave UNIT 1601, Miami, FL 33130",1279,2.0,2,Danies Real Estate Group,Miami,https://www.zillow.com/homedetails/1300-S-Miami-Ave-UNIT-1601-Miami-FL-33130/247651932_zpid/,247651932,https://photos.zillowstatic.com/fp/57edd9e40c9be57e2d65b805a6f44d2a-p_e.jpg,25.761328,-80.19377,"$860,000",FL,Condo for sale,FOR_SALE,1300 S Miami Ave UNIT 1601,33130
"2101 Brickell Ave APT 1608, Miami, FL 33129",791,1.0,1,Skyline Realty International LLC,Miami,https://www.zillow.com/homedetails/2101-Brickell-Ave-APT-1608-Miami-FL-33129/64764634_zpid/,64764634,https://photos.zillowstatic.com/fp/517d75eda581706050ccf656f90feb17-p_e.jpg,25.752407,-80.198875,"$425,000",FL,Condo for sale,FOR_SALE,2101 Brickell Ave APT 1608,33129
"2951 S Bayshore Dr #803, Miami, FL 33133",740,1.0,1,Provident Resorts Realty LLC,Miami,https://www.zillow.com/homedetails/2951-S-Bayshore-Dr-803-Miami-FL-33133/43862974_zpid/,43862974,https://photos.zillowstatic.com/fp/22da2f2ddbf679e4d17d7f0e68dd6e29-p_e.jpg,25.727268,-80.239914,"$425,000",FL,Condo for sale,FOR_SALE,2951 S Bayshore Dr #803,33133
"253 NE 2nd St APT 2403, Miami, FL 33132",1058,2.0,2,Douglas Elliman,Miami,https://www.zillow.com/homedetails/253-NE-2nd-St-APT-2403-Miami-FL-33132/92451248_zpid/,92451248,https://photos.zillowstatic.com/fp/80d8ef449cd7180296988ad8059e56ee-p_e.jpg,25.776608,-80.18833,"$595,000",FL,Condo for sale,FOR_SALE,253 NE 2nd St APT 2403,33132
"501 NE 31st St UNIT 2405, Miami, FL 33137",618,2.0,1,BREC Realty Group LLC,Miami,https://www.zillow.com/homedetails/501-NE-31st-St-UNIT-2405-Miami-FL-33137/306391565_zpid/,306391565,https://photos.zillowstatic.com/fp/612083403c1111f19b5cffa8cb844d0a-p_e.jpg,25.807034,-80.18732,"$470,000",FL,Condo for sale,FOR_SALE,501 NE 31st St UNIT 2405,33137
"501 NE 31st St UNIT 1908, Miami, FL 33137",1084,2.0,2,US Venture Partners Corp,Miami,https://www.zillow.com/homedetails/501-NE-31st-St-UNIT-1908-Miami-FL-33137/249681634_zpid/,249681634,https://photos.zillowstatic.com/fp/268eac06fac02a8e21c077925d7ed4a1-p_e.jpg,25.807034,-80.18732,"$700,000",FL,Condo for sale,FOR_SALE,501 NE 31st St UNIT 1908,33137
"480 NE 30th St APT 1405, Miami, FL 33137",1007,2.0,2,"Zohrer Realty, LLC",Miami,https://www.zillow.com/homedetails/480-NE-30th-St-APT-1405-Miami-FL-33137/72575919_zpid/,72575919,https://photos.zillowstatic.com/fp/637407db846b15a7ce0f49251b598463-p_e.jpg,25.805187,-80.186775,"$520,000",FL,Condo for sale,FOR_SALE,480 NE 30th St APT 1405,33137
"2900 NE 7th Ave UNIT 1108, Miami, FL 33137",790,2.0,2,"Compass Florida, LLC.",Miami,https://www.zillow.com/homedetails/2900-NE-7th-Ave-UNIT-1108-Miami-FL-33137/247679422_zpid/,247679422,https://photos.zillowstatic.com/fp/9d14a188f901931e2435043b4e41c265-p_e.jpg,25.804876,-80.18601,"$649,000",FL,Condo for sale,FOR_SALE,2900 NE 7th Ave UNIT 1108,33137
"2118 NW 3rd St, Miami, FL 33125",1001,,,Luxe Properties,Miami,https://www.zillow.com/homedetails/2118-NW-3rd-St-Miami-FL-33125/43838581_zpid/,43838581,https://photos.zillowstatic.com/fp/872867f1fd52e1d5aa0315b20e3ea393-p_e.jpg,25.775972,-80.22956,"$375,000",FL,Multi-family home for sale,FOR_SALE,2118 NW 3rd St,33125
"2501 SW 37th Ave APT 306, Miami, FL 33133",1100,2.0,2,Northstar First Properties LLC,Miami,https://www.zillow.com/homedetails/2501-SW-37th-Ave-APT-306-Miami-FL-33133/2066434853_zpid/,2066434853,https://photos.zillowstatic.com/fp/5b9745ca9257eaa48a5f30a535ed4487-p_e.jpg,25.744303,-80.25407,"$395,000",FL,Condo for sale,FOR_SALE,2501 SW 37th Ave APT 306,33133
"220 NW 41st St, Miami, FL 33127",1183,1.0,3,Realty One Group Evolution,Miami,https://www.zillow.com/homedetails/220-NW-41st-St-Miami-FL-33127/43813642_zpid/,43813642,https://photos.zillowstatic.com/fp/55d31fc4488225061721105a9d48d279-p_e.jpg,25.813793,-80.200005,"$579,000",FL,House for sale,FOR_SALE,220 NW 41st St,33127
"1300 S Miami Ave #1208, Miami, FL 33130",649,2.0,1,Charles Rutenberg Realty Fort,Miami,https://www.zillow.com/homedetails/1300-S-Miami-Ave-1208-Miami-FL-33130/247652088_zpid/,247652088,https://photos.zillowstatic.com/fp/654eb4c33a58b175a6696cb8b5898f68-p_e.jpg,25.761328,-80.19377,"$460,000",FL,Condo for sale,FOR_SALE,1300 S Miami Ave #1208,33130
"2850 SW 33rd Ave #2850, Miami, FL 33133",,4.0,3,Newstart Brokers LLC,Miami,https://www.zillow.com/homedetails/2850-SW-33rd-Ave-2850-Miami-FL-33133/2066435676_zpid/,2066435676,https://photos.zillowstatic.com/fp/be0616bae1b6d1a2d6336fcbea96f814-p_e.jpg,25.738052,-80.24796,"$997,000",FL,Townhouse for sale,FOR_SALE,2850 SW 33rd Ave #2850,33133
"851 NE 1st Ave #2007, Miami, FL 33132",1547,3.0,2,Avanti Way Realty LLC,Miami,https://www.zillow.com/homedetails/851-NE-1st-Ave-2007-Miami-FL-33132/2076757221_zpid/,2076757221,https://photos.zillowstatic.com/fp/4d223744af03e7ef611ac6ce469b6025-p_e.jpg,,,"$1,199,000",FL,Condo for sale,FOR_SALE,851 NE 1st Ave #2007,33132
"690 SW 1st Ct APT 2116, Miami, FL 33130",1113,3.0,2,Franklin Realty Consultants,Miami,https://www.zillow.com/homedetails/690-SW-1st-Ct-APT-2116-Miami-FL-33130/72560959_zpid/,72560959,https://photos.zillowstatic.com/fp/e94c56dba3560771d778100a9d181e71-p_e.jpg,25.767841,-80.19623,"$420,000",FL,Condo for sale,FOR_SALE,690 SW 1st Ct APT 2116,33130
"92 SW 3rd St APT 2601, Miami, FL 33130",1544,3.0,3,FACCIN Group Realty,Miami,https://www.zillow.com/homedetails/92-SW-3rd-St-APT-2601-Miami-FL-33130/113379515_zpid/,113379515,https://photos.zillowstatic.com/fp/a7bb9ffe201c4e98c04520e146f02652-p_e.jpg,25.769499,-80.19582,"$760,000",FL,Condo for sale,FOR_SALE,92 SW 3rd St APT 2601,33130
"31 SE 5th St APT 3415, Miami, FL 33131",1513,3.0,3,The Keyes Company,Miami,https://www.zillow.com/homedetails/31-SE-5th-St-APT-3415-Miami-FL-33131/70775568_zpid/,70775568,https://photos.zillowstatic.com/fp/5b3b23e20a7ae4f099fb0bb03b5c829d-p_e.jpg,25.76968,-80.191605,"$720,000",FL,Condo for sale,FOR_SALE,31 SE 5th St APT 3415,33131
"1870 NW 19th St, Miami, FL 33125",1704,3.0,4,Charles Rutenberg Realty Inc,Miami,https://www.zillow.com/homedetails/1870-NW-19th-St-Miami-FL-33125/43823549_zpid/,43823549,https://photos.zillowstatic.com/fp/6b6493605693772d645f7d9dd480af92-p_e.jpg,25.792974,-80.226715,"$498,900",FL,House for sale,FOR_SALE,1870 NW 19th St,33125
"1901 Brickell Ave APT B2404, Miami, FL 33129",868,2.0,1,"BZG International, LLC",Miami,https://www.zillow.com/homedetails/1901-Brickell-Ave-APT-B2404-Miami-FL-33129/43868322_zpid/,43868322,https://photos.zillowstatic.com/fp/2d404aff7af1194ae717f1a4adf3fe5b-p_e.jpg,25.754145,-80.196304,"$395,000",FL,Condo for sale,FOR_SALE,1901 Brickell Ave APT B2404,33129
"88 SW 7th St APT 3609, Miami, FL 33130",1259,2.0,2,Fortune International Realty B,Miami,https://www.zillow.com/homedetails/88-SW-7th-St-APT-3609-Miami-FL-33130/247681018_zpid/,247681018,https://photos.zillowstatic.com/fp/8eab7ad31da935cdc4e4274d9895787d-p_e.jpg,25.76704,-80.194496,"$1,399,000",FL,Condo for sale,FOR_SALE,88 SW 7th St APT 3609,33130
"68 SE 6th St APT 3911, Miami, FL 33131",2526,5.0,3,Elite Ocean View Realty LLC,Miami,https://www.zillow.com/homedetails/68-SE-6th-St-APT-3911-Miami-FL-33131/162030340_zpid/,162030340,https://photos.zillowstatic.com/fp/e23d06c72c597a8eb2342b951cd49c43-p_e.jpg,25.768076,-80.19268,"$3,050,000",FL,Condo for sale,FOR_SALE,68 SE 6th St APT 3911,33131
"14350 SW 126th Pl #14350, Miami, FL 33186",1466,3.0,3,"Pan Florida Realty, Inc.",Miami,https://www.zillow.com/homedetails/14350-SW-126th-Pl-14350-Miami-FL-33186/2066437606_zpid/,2066437606,https://photos.zillowstatic.com/fp/b53e4a1f0ad728befdb8ea9315148d8b-p_e.jpg,25.63452,-80.39828,"$400,000",FL,Townhouse for sale,FOR_SALE,14350 SW 126th Pl #14350,33186
"4250 SW 5th Ter, Miami, FL 33134",1549,3.0,5,Miami New Realty,Miami,https://www.zillow.com/homedetails/4250-SW-5th-Ter-Miami-FL-33134/43844320_zpid/,43844320,"https://maps.googleapis.com/maps/api/staticmap?mobile=false&sensor=true&maptype=satellite&size=575x242&zoom=17&center=25.766387939453125,-80.2646255493164&key=AIzaSyBJsNQO5ZeG-XAbqqWLKwG08fWITSxg33w&signature=6_giYuIz18Dq_9JxmBvXvLfJjig=",25.766388,-80.264626,"$698,000",FL,House for sale,FOR_SALE,4250 SW 5th Ter,33134
"244 Biscayne Blvd APT 1007, Miami, FL 33132",806,1.0,1,C W V Realty Group LLC,Miami,https://www.zillow.com/homedetails/244-Biscayne-Blvd-APT-1007-Miami-FL-33132/92440198_zpid/,92440198,https://photos.zillowstatic.com/fp/9a1039cfaae7c8cd99587ca96e4cccab-p_e.jpg,25.776546,-80.18852,"$400,000",FL,Condo for sale,FOR_SALE,244 Biscayne Blvd APT 1007,33132
"755 SW 6th St APT 6, Miami, FL 33130",660,1.0,2,Soto Realty Group,Miami,https://www.zillow.com/homedetails/755-SW-6th-St-APT-6-Miami-FL-33130/43866097_zpid/,43866097,https://photos.zillowstatic.com/fp/f9879c53454d6d46a28a8c658791af15-p_e.jpg,25.768133,-80.20693,"$180,000",FL,Condo for sale,FOR_SALE,755 SW 6th St APT 6,33130
"15925 SW 136th Ter, Miami, FL 33196",2847,3.0,4,Florida Realty of Miami Corp,Miami,https://www.zillow.com/homedetails/15925-SW-136th-Ter-Miami-FL-33196/162033745_zpid/,162033745,https://photos.zillowstatic.com/fp/39f26d0fa7261767b2faf9cd0ff89272-p_e.jpg,25.639591,-80.4521,"$925,000",FL,House for sale,FOR_SALE,15925 SW 136th Ter,33196
"(undisclosed Address), Miami, FL 33131",1200,2.0,2,Affinity International Realty,Miami,https://www.zillow.com/homedetails/Miami-FL-33131/92445775_zpid/,92445775,https://photos.zillowstatic.com/fp/f5121fe0f80c1601ee5ca7c3f181d026-p_e.jpg,,,"$650,000",FL,Condo for sale,FOR_SALE,(undisclosed Address),33131
"14320 SW 98th Ct, Miami, FL 33176",1584,2.0,3,Coldwell Banker Realty,Miami,https://www.zillow.com/homedetails/14320-SW-98th-Ct-Miami-FL-33176/44290309_zpid/,44290309,"https://maps.googleapis.com/maps/api/staticmap?mobile=false&sensor=true&maptype=satellite&size=575x242&zoom=17&center=25.636552810668945,-80.35356903076172&key=AIzaSyBJsNQO5ZeG-XAbqqWLKwG08fWITSxg33w&signature=JLLHakNJL7y_l3evNVwCksR1KhQ=",25.636553,-80.35357,"$849,000",FL,House for sale,FOR_SALE,14320 SW 98th Ct,33176
"55 SW 9th St APT 1707, Miami, FL 33130",541,1.0,1,C W V Realty Group LLC,Miami,https://www.zillow.com/homedetails/55-SW-9th-St-APT-1707-Miami-FL-33130/247652792_zpid/,247652792,https://photos.zillowstatic.com/fp/b82ac4cfc4cb6cc8a1fce05791e41cca-p_e.jpg,25.765661,-80.19421,"$420,000",FL,Condo for sale,FOR_SALE,55 SW 9th St APT 1707,33130
"(undisclosed Address), Miami, FL 33176",1318,2.0,3,Elite Realty International Co.,Miami,https://www.zillow.com/homedetails/Miami-FL-33176/44285762_zpid/,44285762,https://photos.zillowstatic.com/fp/63ce8175608532d81935e33f52129d43-p_e.jpg,,,"$635,000",FL,House for sale,FOR_SALE,(undisclosed Address),33176
"Casa 04 (L2-46) Plan, CasaBella by B&BItalia",1216,2.0,1,,Miami,https://www.zillow.com/community/casabella-by-b-bitalia/2066543933_zpid/,2066543933,https://photos.zillowstatic.com/fp/630659dcc57c06eddfa5da09c7ad774d-p_e.jpg,25.789082,-80.189545,"$850,900+",FL,New construction,FOR_SALE,"Casa 04 (L2-46) Plan, CasaBella by B&BItalia",33132
"212 SW 19th Rd, Miami, FL 33129",2083,2.0,3,Compass Florida LLC,Miami,https://www.zillow.com/homedetails/212-SW-19th-Rd-Miami-FL-33129/43864803_zpid/,43864803,https://photos.zillowstatic.com/fp/042c2672fd95375c18a4240392481a7f-p_e.jpg,25.758335,-80.20178,"$1,100,000",FL,House for sale,FOR_SALE,212 SW 19th Rd,33129
"555 NE 15th St APT 20F, Miami, FL 33132",860,2.0,1,Sterling Property Group Inc,Miami,https://www.zillow.com/homedetails/555-NE-15th-St-APT-20F-Miami-FL-33132/43833522_zpid/,43833522,https://photos.zillowstatic.com/fp/7a25afe2f5c3be7ad77ce60d8bfa00e5-p_e.jpg,25.790186,-80.1857,"$275,000",FL,Condo for sale,FOR_SALE,555 NE 15th St APT 20F,33132
"133 NE 2nd Ave APT 3105, Miami, FL 33132",651,1.0,1,Realty One Group Evolution,Miami,https://www.zillow.com/homedetails/133-NE-2nd-Ave-APT-3105-Miami-FL-33132/82071739_zpid/,82071739,https://photos.zillowstatic.com/fp/3727c16c8bb389a9a340789ed9e4a089-p_e.jpg,25.776102,-80.18969,"$300,000",FL,Condo for sale,FOR_SALE,133 NE 2nd Ave APT 3105,33132
"3523 Bayshore Villas Dr, Miami, FL 33133",4714,5.0,4,"Compass Florida, LLC",Miami,https://www.zillow.com/homedetails/3523-Bayshore-Villas-Dr-Miami-FL-33133/43857147_zpid/,43857147,https://photos.zillowstatic.com/fp/0d4c72ace9613445000ece58b218ffac-p_e.jpg,25.73534,-80.22572,"$3,180,000",FL,House for sale,FOR_SALE,3523 Bayshore Villas Dr,33133
"770 Claughton Island Dr APT 1113, Miami, FL 33131",985,2.0,2,Cervera Real Estate Inc,Miami,https://www.zillow.com/homedetails/770-Claughton-Island-Dr-APT-1113-Miami-FL-33131/64663249_zpid/,64663249,https://photos.zillowstatic.com/fp/5d0b686283cf7dc2d7be38be2291bcc3-p_e.jpg,25.76607,-80.184616,"$499,000",FL,Condo for sale,FOR_SALE,770 Claughton Island Dr APT 1113,33131
"7300 NE 7th Ave, Miami, FL 33138",1967,3.0,3,"Compass Florida, LLC",Miami,https://www.zillow.com/homedetails/7300-NE-7th-Ave-Miami-FL-33138/43828067_zpid/,43828067,https://photos.zillowstatic.com/fp/1f5f4a5aa386d679259ff6652d581111-p_e.jpg,25.842796,-80.18247,"$1,900,000",FL,House for sale,FOR_SALE,7300 NE 7th Ave,33138
"5760 SW 112th Ave, Miami, FL 33173",1442,1.0,2,Coldwell Banker Realty,Miami,https://www.zillow.com/homedetails/5760-SW-112th-Ave-Miami-FL-33173/44212376_zpid/,44212376,https://photos.zillowstatic.com/fp/0920a885f3e40d4926895ec9984d45d1-p_e.jpg,25.713144,-80.3751,"$459,500",FL,House for sale,FOR_SALE,5760 SW 112th Ave,33173
"8065 SW 107th Ave APT 215, Miami, FL 33173",965,2.0,2,Nexus International Realty,Miami,https://www.zillow.com/homedetails/8065-SW-107th-Ave-APT-215-Miami-FL-33173/44219725_zpid/,44219725,https://photos.zillowstatic.com/fp/27ad2615261019ec3e6cf7b68ce642df-p_e.jpg,25.69284,-80.3641,"$225,000",FL,Condo for sale,FOR_SALE,8065 SW 107th Ave APT 215,33173
"1310 NW 24th Ave #1310, Miami, FL 33125",0,2.0,3,Lifestyle International Realty,Miami,https://www.zillow.com/homedetails/1310-NW-24th-Ave-1310-Miami-FL-33125/43825574_zpid/,43825574,https://photos.zillowstatic.com/fp/61edde6c4f8f15cdd6c34474ef1f169c-p_e.jpg,25.78531,-80.23592,"$245,000",FL,Condo for sale,FOR_SALE,1310 NW 24th Ave #1310,33125
"335 S Biscayne Blvd APT 3708, Miami, FL 33131",1169,2.0,2,Keller Williams Miami Beach Realty,Miami,https://www.zillow.com/homedetails/335-S-Biscayne-Blvd-APT-3708-Miami-FL-33131/70767610_zpid/,70767610,https://photos.zillowstatic.com/fp/cbe188669296c59fe6e8fa7843ecfe03-p_e.jpg,25.771225,-80.18724,"$525,000",FL,Condo for sale,FOR_SALE,335 S Biscayne Blvd APT 3708,33131
"1000 Brickell Plz #5403, Miami, FL 33131",2211,4.0,2,"Compass Florida, LLC",Miami,https://www.zillow.com/homedetails/1000-Brickell-Plz-5403-Miami-FL-33131/306061494_zpid/,306061494,https://photos.zillowstatic.com/fp/9f7c587e84329378107fefbfe9b78559-p_e.jpg,25.764446,-80.19253,"$2,550,000",FL,Condo for sale,FOR_SALE,1000 Brickell Plz #5403,33131
"2451 Brickell Ave APT 11L, Miami, FL 33129",1188,2.0,2,NEXXOS REALTY LLC,Miami,https://www.zillow.com/homedetails/2451-Brickell-Ave-APT-11L-Miami-FL-33129/43868882_zpid/,43868882,https://photos.zillowstatic.com/fp/89a29dd73d5977eee1a99dfea9099b9f-p_e.jpg,25.750542,-80.20112,"$450,000",FL,Condo for sale,FOR_SALE,2451 Brickell Ave APT 11L,33129
"1600 NE 1st Ave #1615, Miami, FL 33132",,2.0,1,Atlas Realty & Investments LLC,Miami,https://www.zillow.com/homedetails/1600-NE-1st-Ave-1615-Miami-FL-33132/308907512_zpid/,308907512,https://photos.zillowstatic.com/fp/0988453ec477f7e8d5fcb0274fce5ce0-p_e.jpg,25.79104,-80.19283,"$450,000",FL,Condo for sale,FOR_SALE,1600 NE 1st Ave #1615,33132
"645 NE 77th St APT 10, Miami, FL 33138",730,1.0,2,Beachfront Realty Inc,Miami,https://www.zillow.com/homedetails/645-NE-77th-St-APT-10-Miami-FL-33138/54692356_zpid/,54692356,https://photos.zillowstatic.com/fp/f03ce56eab2b57e69b215f56e8776d8a-p_e.jpg,25.846186,-80.18354,"$450,000",FL,Condo for sale,FOR_SALE,645 NE 77th St APT 10,33138
"3500 N Bay Homes Dr, Miami, FL 33133",5963,6.0,5,One Sotheby's International Realty,Miami,https://www.zillow.com/homedetails/3500-N-Bay-Homes-Dr-Miami-FL-33133/43863706_zpid/,43863706,https://photos.zillowstatic.com/fp/993de15d161609f3b312343155dc2589-p_e.jpg,25.71333,-80.24938,"$30,000,000",FL,House for sale,FOR_SALE,3500 N Bay Homes Dr,33133
"5190 NW 2nd Ter, Miami, FL 33126",1590,2.0,4,Florida Realty of Miami Corp,Miami,https://www.zillow.com/homedetails/5190-NW-2nd-Ter-Miami-FL-33126/43845589_zpid/,43845589,https://photos.zillowstatic.com/fp/7bd4319eb3489dc7c6b58b80edddd31c-p_e.jpg,25.774042,-80.2797,"$780,000",FL,House for sale,FOR_SALE,5190 NW 2nd Ter,33126
"5085 NW 7th St APT 816, Miami, FL 33126",979,2.0,2,Floridian Realty Corp.,Miami,https://www.zillow.com/homedetails/5085-NW-7th-St-APT-816-Miami-FL-33126/70773047_zpid/,70773047,https://photos.zillowstatic.com/fp/e0b0260832153679a0e5e6e5d956ad8a-p_e.jpg,25.779522,-80.27758,"$285,000",FL,Condo for sale,FOR_SALE,5085 NW 7th St APT 816,33126
"1144 NW 2nd St, Miami, FL 33128",4598,,,"Compass Florida, LLC",Miami,https://www.zillow.com/homedetails/1144-NW-2nd-St-Miami-FL-33128/2071288690_zpid/,2071288690,https://photos.zillowstatic.com/fp/2163fe16fc82e50f8d0c9a91b93424b3-p_e.jpg,,,"$1,275,000",FL,Multi-family home for sale,FOR_SALE,1144 NW 2nd St,33128
"475 Brickell Ave APT 2313, Miami, FL 33131",1012,2.0,2,Fortune International Realty,Miami,https://www.zillow.com/homedetails/475-Brickell-Ave-APT-2313-Miami-FL-33131/92448552_zpid/,92448552,https://photos.zillowstatic.com/fp/ae05a4fcbad50dda5475aea374d0fce4-p_e.jpg,25.769077,-80.1886,"$795,000",FL,Condo for sale,FOR_SALE,475 Brickell Ave APT 2313,33131
"3001 SW 27th Ave #L405, Miami, FL 33133",1385,2.0,2,First Service Realty ERA,Miami,https://www.zillow.com/homedetails/3001-SW-27th-Ave-L405-Miami-FL-33133/82410167_zpid/,82410167,https://photos.zillowstatic.com/fp/88f78f12fc62cb9071facbe10bfcf989-p_e.jpg,25.735275,-80.23731,"$525,000",FL,Condo for sale,FOR_SALE,3001 SW 27th Ave #L405,33133
"2810 SW 16th Ter, Miami, FL 33145",1192,,,"Miami Metro Realty, LLC",Miami,https://www.zillow.com/homedetails/2810-SW-16th-Ter-Miami-FL-33145/63831052_zpid/,63831052,https://photos.zillowstatic.com/fp/17d061fd238e1090628de2c7a3a3f829-p_e.jpg,25.75653,-80.23994,"$875,000",FL,Multi-family home for sale,FOR_SALE,2810 SW 16th Ter,33145
"2322 SW 5th St, Miami, FL 33135",,,,"Angie Homes Realty, Inc.",Miami,https://www.zillow.com/homedetails/2322-SW-5th-St-Miami-FL-33135/43840017_zpid/,43840017,https://photos.zillowstatic.com/fp/9560454c24b0f469824887494239f95a-p_e.jpg,25.767637,-80.23327,"$250,000",FL,Lot / Land for sale,FOR_SALE,2322 SW 5th St,33135
"1420 NW 1st Pl, Miami, FL 33136",,,,Pulse Int'l Realty FL Inc,Miami,https://www.zillow.com/homedetails/1420-NW-1st-Pl-Miami-FL-33136/43815958_zpid/,43815958,https://photos.zillowstatic.com/fp/8dc92c3e6e031bae7159ce8d387bb9e4-p_e.jpg,25.788576,-80.19845,"$90,000",FL,Lot / Land for sale,FOR_SALE,1420 NW 1st Pl,33136
"9220 SW 105th St, Miami, FL 33176",4268,5.0,5,Coldwell Banker Realty,Miami,https://www.zillow.com/homedetails/9220-SW-105th-St-Miami-FL-33176/44283722_zpid/,44283722,https://photos.zillowstatic.com/fp/bcf88aa9a07e8f739f76103b62155e6b-p_e.jpg,25.671713,-80.34393,"$2,790,000",FL,House for sale,FOR_SALE,9220 SW 105th St,33176
"1421 NW 70th St, Miami, FL 33147",962,1.0,2,Keller Williams Elite Properties,Miami,https://www.zillow.com/homedetails/1421-NW-70th-St-Miami-FL-33147/43808946_zpid/,43808946,https://photos.zillowstatic.com/fp/fad1e3fda595ab389c46bec1c608cdd9-p_e.jpg,25.838787,-80.22153,"$315,000",FL,House for sale,FOR_SALE,1421 NW 70th St,33147
"900 Biscayne Blvd APT 2506, Miami, FL 33132",2145,4.0,3,"Compass Florida, LLC.",Miami,https://www.zillow.com/homedetails/900-Biscayne-Blvd-APT-2506-Miami-FL-33132/92437070_zpid/,92437070,https://photos.zillowstatic.com/fp/3e189fd19560d41e774ba50619f6e9f2-p_e.jpg,25.78323,-80.18997,"$1,550,000",FL,Condo for sale,FOR_SALE,900 Biscayne Blvd APT 2506,33132
"485 Brickell Ave APT 3909, Miami, FL 33131",953,1.0,2,The Corcoran Group,Miami,https://www.zillow.com/homedetails/485-Brickell-Ave-APT-3909-Miami-FL-33131/2071323453_zpid/,2071323453,https://photos.zillowstatic.com/fp/336bb77910c8f4e08ffe0b8dfc4b580c-p_e.jpg,25.768652,-80.18913,"$950,000",FL,Condo for sale,FOR_SALE,485 Brickell Ave APT 3909,33131
"2845 SW 67th Ave, Miami, FL 33155",1250,3.0,3,The Cortes Group Real Estate Inc.,Miami,https://www.zillow.com/homedetails/2845-SW-67th-Ave-Miami-FL-33155/44187311_zpid/,44187311,https://photos.zillowstatic.com/fp/ba6ed8b457252256f72c4629b9c2ea94-p_e.jpg,25.743393,-80.303024,"$705,000",FL,House for sale,FOR_SALE,2845 SW 67th Ave,33155
"1250 S Miami Ave APT 2805, Miami, FL 33130",1128,2.0,2,Gimeza A Real Estate Corp.,Miami,https://www.zillow.com/homedetails/1250-S-Miami-Ave-APT-2805-Miami-FL-33130/70775739_zpid/,70775739,https://photos.zillowstatic.com/fp/5d8ab1c485db9e12423e9cf0b20f16b3-p_e.jpg,25.762094,-80.19355,"$595,000",FL,Condo for sale,FOR_SALE,1250 S Miami Ave APT 2805,33130
"88 SW 7th St APT 4110, Miami, FL 33130",1401,3.0,2,"Slesnick & Jochem, LLP.",Miami,https://www.zillow.com/homedetails/88-SW-7th-St-APT-4110-Miami-FL-33130/247679562_zpid/,247679562,https://photos.zillowstatic.com/fp/7fbdffeeb1810ff22d6981da274d1aa4-p_e.jpg,25.76704,-80.194496,"$1,220,000",FL,Condo for sale,FOR_SALE,88 SW 7th St APT 4110,33130
"2-Bedroom SKY Collection - Floors 86 & 88 R4 Plan, Waldorf Astoria Residences",1944,3.0,2,,Miami,https://www.zillow.com/community/waldorf-astoria-residences/2066534597_zpid/,2066534597,https://photos.zillowstatic.com/fp/8138f14b19a995f5232b1ef695780f1d-p_e.jpg,25.777695,-80.1887,"$3,579,250+",FL,New construction,FOR_SALE,"2-Bedroom SKY Collection - Floors 86 & 88 R4 Plan, Waldorf Astoria Residences",33130
"88 NE 68th Ter, Miami, FL 33138",,2.0,4,EZ Choice Realty,Miami,https://www.zillow.com/homedetails/88-NE-68th-Ter-Miami-FL-33138/43807017_zpid/,43807017,https://photos.zillowstatic.com/fp/610c620e7b17870f7ed309f83a180db7-p_e.jpg,25.837605,-80.195015,"$330,000",FL,House for sale,FOR_SALE,88 NE 68th Ter,33138
"35 NE 59th St, Miami, FL 33137",3367,4.0,8,Partnership Realty Inc.,Miami,https://www.zillow.com/homedetails/35-NE-59th-St-Miami-FL-33137/2104172832_zpid/,2104172832,https://photos.zillowstatic.com/fp/b27b60da382f5ef30932950c1c7004f1-p_e.jpg,,,"$800,000",FL,Multi-family home for sale,FOR_SALE,35 NE 59th St,33137
"2627 S Bayshore Dr APT 504, Miami, FL 33133",2640,4.0,3,"Boschetti Realty Group, LLC.",Miami,https://www.zillow.com/homedetails/2627-S-Bayshore-Dr-APT-504-Miami-FL-33133/70774970_zpid/,70774970,https://photos.zillowstatic.com/fp/90a475d841b6d82a7a7393bdf8dd6dd1-p_e.jpg,25.732395,-80.235085,"$2,995,000",FL,Condo for sale,FOR_SALE,2627 S Bayshore Dr APT 504,33133
"(undisclosed Address), Miami, FL 33173",1340,2.0,3,"Trexy International Realty, Inc",Miami,https://www.zillow.com/homedetails/Miami-FL-33173/44214300_zpid/,44214300,https://photos.zillowstatic.com/fp/5ee7f277956c5239802bb76f302abc13-p_e.jpg,,,"$409,000",FL,Townhouse for sale,FOR_SALE,(undisclosed Address),33173
"2818 Coconut Ave #2818, Miami, FL 33133",1000,3.0,2,Emporio Real Estate,Miami,https://www.zillow.com/homedetails/2818-Coconut-Ave-2818-Miami-FL-33133/64846736_zpid/,64846736,https://photos.zillowstatic.com/fp/e9a50eed604d8a985f50ebdb96944262-p_e.jpg,25.737553,-80.239044,"$650,000",FL,Townhouse for sale,FOR_SALE,2818 Coconut Ave #2818,33133
"2 Bedroom (UNIT 402) Plan, Aria Reserve",1528,3.0,2,,Miami,https://www.zillow.com/community/aria-reserve/2066593584_zpid/,2066593584,https://photos.zillowstatic.com/fp/2a2db8800005e46e6e25ca351cf7338d-p_e.jpg,25.800165,-80.18591,"$1,382,900+",FL,New construction,FOR_SALE,"2 Bedroom (UNIT 402) Plan, Aria Reserve",33137
"555 NE 15th St APT 27E, Miami, FL 33132",860,2.0,1,Oceanfront Realty Group,Miami,https://www.zillow.com/homedetails/555-NE-15th-St-APT-27E-Miami-FL-33132/2071331120_zpid/,2071331120,https://photos.zillowstatic.com/fp/9d6939026f25d82eff72fca4f5f2fd99-p_e.jpg,25.790186,-80.1857,"$389,000",FL,Condo for sale,FOR_SALE,555 NE 15th St APT 27E,33132
"10401 SW 139th St, Miami, FL 33176",3041,3.0,4,AmeriFirst Realty,Miami,https://www.zillow.com/homedetails/10401-SW-139th-St-Miami-FL-33176/44290863_zpid/,44290863,https://photos.zillowstatic.com/fp/6b38e18245787b71fbe5503f6d15407a-p_e.jpg,25.640543,-80.362595,"$1,399,000",FL,House for sale,FOR_SALE,10401 SW 139th St,33176
"121 NE 34th St UNIT 1704, Miami, FL 33137",1096,2.0,2,Dezer Platinum Realty LLC,Miami,https://www.zillow.com/homedetails/121-NE-34th-St-UNIT-1704-Miami-FL-33137/306394899_zpid/,306394899,https://photos.zillowstatic.com/fp/1352efb6e4e88ff095de6083203d535b-p_e.jpg,25.808714,-80.19209,"$790,000",FL,Condo for sale,FOR_SALE,121 NE 34th St UNIT 1704,33137
"121 NE 34th St UNIT 2301, Miami, FL 33137",835,2.0,2,Dezer Platinum Realty LLC,Miami,https://www.zillow.com/homedetails/121-NE-34th-St-UNIT-2301-Miami-FL-33137/306391729_zpid/,306391729,https://photos.zillowstatic.com/fp/59f173fbfc2acafbfcd4d1e21930cf62-p_e.jpg,25.808714,-80.19209,"$587,499",FL,Condo for sale,FOR_SALE,121 NE 34th St UNIT 2301,33137
"1750 N Bayshore Dr APT 5509, Miami, FL 33132",825,1.0,1,"Prestige Realty Group, LLC",Miami,https://www.zillow.com/homedetails/1750-N-Bayshore-Dr-APT-5509-Miami-FL-33132/82382227_zpid/,82382227,https://photos.zillowstatic.com/fp/29d52b929976d54c87658834eeb18a71-p_e.jpg,25.79248,-80.18715,"$395,000",FL,Condo for sale,FOR_SALE,1750 N Bayshore Dr APT 5509,33132
"11322 SW 67th Ter #0, Miami, FL 33173",0,2.0,3,Kasas Realty LLC,Miami,https://www.zillow.com/homedetails/11322-SW-67th-Ter-0-Miami-FL-33173/2066447377_zpid/,2066447377,https://photos.zillowstatic.com/fp/95d6939c1fcdd4d608b76a8b9d1c6b11-p_e.jpg,25.704891,-80.37695,"$385,000",FL,Townhouse for sale,FOR_SALE,11322 SW 67th Ter #0,33173
"(undisclosed Address), Miami, FL 33125",2244,,,Berkshire Hathaway HomeServices Florida Realty,Miami,https://www.zillow.com/homedetails/Miami-FL-33125/80786692_zpid/,80786692,https://photos.zillowstatic.com/fp/43ea29885e6f644c2ad369c1e0b27313-p_e.jpg,,,"$649,000",FL,Multi-family home for sale,FOR_SALE,(undisclosed Address),33125
"9960 SW 54th St, Miami, FL 33165",2305,2.0,3,"Ocean Palms Realty Associates, LLC.",Miami,https://www.zillow.com/homedetails/9960-SW-54th-St-Miami-FL-33165/44201960_zpid/,44201960,https://photos.zillowstatic.com/fp/546526a32dcb0c2018f89afb73c64588-p_e.jpg,25.71728,-80.356575,"$695,900",FL,House for sale,FOR_SALE,9960 SW 54th St,33165
"Residence 02 Plan, Baccarat Residences",2189,3.0,2,,Miami,https://www.zillow.com/community/baccarat-residences/2066653473_zpid/,2066653473,https://photos.zillowstatic.com/fp/fee55436e28bb004a7557a0b530dd913-p_e.jpg,25.769188,-80.19043,"$1,915,900+",FL,New construction,FOR_SALE,"Residence 02 Plan, Baccarat Residences",33131
"12876 SW 133rd Ter #12876, Miami, FL 33186",1670,3.0,3,Choice Realty of Miami Inc,Miami,https://www.zillow.com/homedetails/12876-SW-133rd-Ter-12876-Miami-FL-33186/2094236993_zpid/,2094236993,https://photos.zillowstatic.com/fp/4605dfc61ca2838c4a1f15c9dab69b72-p_e.jpg,,,"$425,000",FL,Townhouse for sale,FOR_SALE,12876 SW 133rd Ter #12876,33186
"7265 SW 89th St #A712, Miami, FL 33156",1516,2.0,3,E Capital Realty Inc,Miami,https://www.zillow.com/homedetails/7265-SW-89th-St-A712-Miami-FL-33156/83162509_zpid/,83162509,https://photos.zillowstatic.com/fp/4568b5120d9b452f060f26629fe10419-p_e.jpg,25.68815,-80.31264,"$525,000",FL,Condo for sale,FOR_SALE,7265 SW 89th St #A712,33156
"Residence 01 Plan, Baccarat Residences",3654,5.0,4,,Miami,https://www.zillow.com/community/baccarat-residences/2066653477_zpid/,2066653477,https://photos.zillowstatic.com/fp/5a4484c5ed431d004f63bfb47f75ea82-p_e.jpg,25.769188,-80.19043,"$3,933,900+",FL,New construction,FOR_SALE,"Residence 01 Plan, Baccarat Residences",33131
"6765 SW 38th St, Miami, FL 33155",1492,2.0,3,Blue Mar R.E. Group,Miami,https://www.zillow.com/homedetails/6765-SW-38th-St-Miami-FL-33155/44189419_zpid/,44189419,https://photos.zillowstatic.com/fp/054de63c4a82bebe6f34f75f5c172dc7-p_e.jpg,25.736006,-80.30419,"$640,000",FL,House for sale,FOR_SALE,6765 SW 38th St,33155
"5160 NW 5th St, Miami, FL 33126",0,5.0,8,Apple Realty,Miami,https://www.zillow.com/homedetails/5160-NW-5th-St-Miami-FL-33126/43845445_zpid/,43845445,https://photos.zillowstatic.com/fp/818393be0ccf1db16c6ae33e82fc4ac5-p_e.jpg,25.776756,-80.27948,"$900,000",FL,House for sale,FOR_SALE,5160 NW 5th St,33126
"424 NE 82nd St APT 2C, Miami, FL 33138",855,1.0,2,"Related ISG Realty, LLC.",Miami,https://www.zillow.com/homedetails/424-NE-82nd-St-APT-2C-Miami-FL-33138/43828186_zpid/,43828186,https://photos.zillowstatic.com/fp/c4843e78119f059aeea6af9b2903fd36-p_e.jpg,25.849796,-80.18721,"$199,000",FL,Condo for sale,FOR_SALE,424 NE 82nd St APT 2C,33138
"Casa 05 (L2-46) Plan, CasaBella by B&BItalia",1613,3.0,2,,Miami,https://www.zillow.com/community/casabella-by-b-bitalia/2066543935_zpid/,2066543935,https://photos.zillowstatic.com/fp/3560ca7e32ecc855ae0c5e9bd680c0f1-p_e.jpg,25.789082,-80.189545,"$1,115,900+",FL,New construction,FOR_SALE,"Casa 05 (L2-46) Plan, CasaBella by B&BItalia",33132
"1467 NW 30th St, Miami, FL 33142",898,1.0,2,"Select International Realty, LLC.",Miami,https://www.zillow.com/homedetails/1467-NW-30th-St-Miami-FL-33142/43817271_zpid/,43817271,https://photos.zillowstatic.com/fp/02529a5a039d0a60d41400957bfbe21b-p_e.jpg,25.804815,-80.2209,"$399,000",FL,House for sale,FOR_SALE,1467 NW 30th St,33142
"244 Biscayne Blvd APT 2802, Miami, FL 33132",1203,2.0,2,LoKation,Miami,https://www.zillow.com/homedetails/244-Biscayne-Blvd-APT-2802-Miami-FL-33132/92449019_zpid/,92449019,https://photos.zillowstatic.com/fp/abfac87a5f9bb000f0729f9293bc298b-p_e.jpg,25.776936,-80.189,"$685,000",FL,Condo for sale,FOR_SALE,244 Biscayne Blvd APT 2802,33132
"1040 Biscayne Blvd APT 1107, Miami, FL 33132",0,3.0,2,"Museum Park Realty, LLC.",Miami,https://www.zillow.com/homedetails/1040-Biscayne-Blvd-APT-1107-Miami-FL-33132/82421083_zpid/,82421083,https://photos.zillowstatic.com/fp/ed2ad6d830507d3ac117de04c900b337-p_e.jpg,25.78467,-80.19018,"$625,000",FL,Condo for sale,FOR_SALE,1040 Biscayne Blvd APT 1107,33132
"1040 Biscayne Blvd APT 2306, Miami, FL 33132",0,3.0,2,"Museum Park Realty, LLC.",Miami,https://www.zillow.com/homedetails/1040-Biscayne-Blvd-APT-2306-Miami-FL-33132/82421217_zpid/,82421217,https://photos.zillowstatic.com/fp/0f95c81a970a7bdb0f79b3892b0952c2-p_e.jpg,25.78467,-80.19018,"$640,000",FL,Condo for sale,FOR_SALE,1040 Biscayne Blvd APT 2306,33132
"2540 SW 64th Ave, Miami, FL 33155",3040,4.0,3,New World Realty Group Inc,Miami,https://www.zillow.com/homedetails/2540-SW-64th-Ave-Miami-FL-33155/44187100_zpid/,44187100,https://photos.zillowstatic.com/fp/79304ed69610f43d17c04c9215a4465d-p_e.jpg,25.74662,-80.29977,"$1,799,000",FL,House for sale,FOR_SALE,2540 SW 64th Ave,33155
"13301 SW 99th Pl, Miami, FL 33176",1917,2.0,4,Dynamic Property Group of FL,Miami,https://www.zillow.com/homedetails/13301-SW-99th-Pl-Miami-FL-33176/44285664_zpid/,44285664,https://photos.zillowstatic.com/fp/5629c0cf356e86b25ffbd013509c6854-p_e.jpg,25.645725,-80.35577,"$625,000",FL,House for sale,FOR_SALE,13301 SW 99th Pl,33176
"480 NE 31st St UNIT 605, Miami, FL 33137",1143,3.0,2,Coldwell Banker Realty,Miami,https://www.zillow.com/homedetails/480-NE-31st-St-UNIT-605-Miami-FL-33137/331696993_zpid/,331696993,https://photos.zillowstatic.com/fp/bc0b168bc2b514f69d5b36b8145359d9-p_e.jpg,25.80619,-80.18672,"$860,000",FL,Condo for sale,FOR_SALE,480 NE 31st St UNIT 605,33137
"1451 Brickell Ave UNIT 1404, Miami, FL 33131",748,2.0,1,RGI Realty,Miami,https://www.zillow.com/homedetails/1451-Brickell-Ave-UNIT-1404-Miami-FL-33131/247653185_zpid/,247653185,https://photos.zillowstatic.com/fp/6fa681ad766b08ac1f56e43c28f0dd39-p_e.jpg,25.758121,-80.1924,"$730,000",FL,Condo for sale,FOR_SALE,1451 Brickell Ave UNIT 1404,33131
"2411 SW 25th St, Miami, FL 33133",0,1.0,2,London Foster Realty,Miami,https://www.zillow.com/homedetails/2411-SW-25th-St-Miami-FL-33133/43855177_zpid/,43855177,https://photos.zillowstatic.com/fp/216f3a75f472f17de974f11a6df4f3d9-p_e.jpg,25.745846,-80.234344,"$599,999",FL,House for sale,FOR_SALE,2411 SW 25th St,33133
"1111 SW 1st Ave APT 2222, Miami, FL 33130",1012,2.0,2,"City Properties Group, Inc.",Miami,https://www.zillow.com/homedetails/1111-SW-1st-Ave-APT-2222-Miami-FL-33130/2111743923_zpid/,2111743923,https://photos.zillowstatic.com/fp/099b3adfd50aa04b417ebdf74e1a370a-p_e.jpg,25.763214,-80.19456,"$520,000",FL,Condo for sale,FOR_SALE,1111 SW 1st Ave APT 2222,33130
"4-Bedroom SKY Collection - Floors 80-87 R1 Plan, Waldorf Astoria Residences",3575,5.0,4,,Miami,https://www.zillow.com/community/waldorf-astoria-residences/2066534596_zpid/,2066534596,https://photos.zillowstatic.com/fp/8138f14b19a995f5232b1ef695780f1d-p_e.jpg,25.777695,-80.1887,"$8,601,250+",FL,New construction,FOR_SALE,"4-Bedroom SKY Collection - Floors 80-87 R1 Plan, Waldorf Astoria Residences",33130
"750 NE 64th St APT B211, Miami, FL 33138",926,1.0,2,Flat Fee MLS Realty,Miami,https://www.zillow.com/homedetails/750-NE-64th-St-APT-B211-Miami-FL-33138/64701777_zpid/,64701777,https://photos.zillowstatic.com/fp/5bcb1bb48892f3102665ee9fc97a255f-p_e.jpg,25.834444,-80.18117,"$379,900",FL,Condo for sale,FOR_SALE,750 NE 64th St APT B211,33138
"Line 01 Floors 26-37 - 4 Bedrooms Penthous Plan, UNA Residences",2743,5.0,4,,Miami,https://www.zillow.com/community/una-residences/2066811946_zpid/,2066811946,https://photos.zillowstatic.com/fp/ca0837ce6e61af01966e73766860cb2f-p_e.jpg,25.749235,-80.201164,"$4,700,000+",FL,New construction,FOR_SALE,"Line 01 Floors 26-37 - 4 Bedrooms Penthous Plan, UNA Residences",33129
"780 NE 69th St APT T1B, Miami, FL 33138",2982,2.0,1,LenCor International Prop. Inc,Miami,https://www.zillow.com/homedetails/780-NE-69th-St-APT-T1B-Miami-FL-33138/2067002594_zpid/,2067002594,https://photos.zillowstatic.com/fp/b6dc666ec5d10744db181862d9ecf4a1-p_e.jpg,25.83887,-80.18001,"$1,529,000",FL,Condo for sale,FOR_SALE,780 NE 69th St APT T1B,33138
"1124 NW 55th St, Miami, FL 33127",624,1.0,2,United Realty Group Inc,Miami,https://www.zillow.com/homedetails/1124-NW-55th-St-Miami-FL-33127/43809507_zpid/,43809507,https://photos.zillowstatic.com/fp/afcbe4520333e18d865c9d4b13cb5fc5-p_e.jpg,25.825327,-80.214874,"$290,000",FL,House for sale,FOR_SALE,1124 NW 55th St,33127
"1111 SW 1st Ave #2217, Miami, FL 33130",1106,2.0,2,Skyline Realty International LLC,Miami,https://www.zillow.com/homedetails/1111-SW-1st-Ave-2217-Miami-FL-33130/2066453697_zpid/,2066453697,https://photos.zillowstatic.com/fp/5e06e2310681cfab85cc790425fd72ec-p_e.jpg,25.76287,-80.19506,"$555,900",FL,Condo for sale,FOR_SALE,1111 SW 1st Ave #2217,33130
"485 Brickell Ave APT 4808, Miami, FL 33131",1459,2.0,2,Keller Williams Realty Premier,Miami,https://www.zillow.com/homedetails/485-Brickell-Ave-APT-4808-Miami-FL-33131/2076530783_zpid/,2076530783,https://photos.zillowstatic.com/fp/3b59d8c001574db28349c310e0d9a85c-p_e.jpg,25.768652,-80.18913,"$1,350,000",FL,Condo for sale,FOR_SALE,485 Brickell Ave APT 4808,33131
"2620 SW 21st St, Miami, FL 33145",0,1.0,2,Skye Louis Realty Inc,Miami,https://www.zillow.com/homedetails/2620-SW-21st-St-Miami-FL-33145/43851020_zpid/,43851020,https://photos.zillowstatic.com/fp/e9f490492dbebaa85cab790ad851b307-p_e.jpg,25.751657,-80.23775,"$649,900",FL,House for sale,FOR_SALE,2620 SW 21st St,33145
"3 Bedroom (UNIT 303) Plan, Aria Reserve",1651,4.0,3,,Miami,https://www.zillow.com/community/aria-reserve/2066593583_zpid/,2066593583,https://photos.zillowstatic.com/fp/2a2db8800005e46e6e25ca351cf7338d-p_e.jpg,25.800165,-80.18591,"$1,497,900+",FL,New construction,FOR_SALE,"3 Bedroom (UNIT 303) Plan, Aria Reserve",33137
"7285 SW 90th St #D408, Miami, FL 33156",1119,2.0,2,Xcellence Realty,Miami,https://www.zillow.com/homedetails/7285-SW-90th-St-D408-Miami-FL-33156/83161284_zpid/,83161284,https://photos.zillowstatic.com/fp/67326b69d715b10899d79314c1de9d5e-p_e.jpg,25.687273,-80.31314,"$495,000",FL,Condo for sale,FOR_SALE,7285 SW 90th St #D408,33156
"1717 N Bayshore Dr #A-3048, Miami, FL 33132",1602,2.0,3,The Grand & Associates Realty Inc,Miami,https://www.zillow.com/homedetails/1717-N-Bayshore-Dr-A-3048-Miami-FL-33132/43832638_zpid/,43832638,https://photos.zillowstatic.com/fp/9873ccb486a13a6cbf1188da4e88744a-p_e.jpg,25.791523,-80.18616,"$660,000",FL,Condo for sale,FOR_SALE,1717 N Bayshore Dr #A-3048,33132
"951 NE 82nd Ter, Miami, FL 33138",1675,2.0,3,Keller Williams Eagle Realty,Miami,https://www.zillow.com/homedetails/951-NE-82nd-Ter-Miami-FL-33138/43826922_zpid/,43826922,https://photos.zillowstatic.com/fp/1cf5b26e2494b3b30ddf802f31b2e59d-p_e.jpg,25.851114,-80.17728,"$879,000",FL,House for sale,FOR_SALE,951 NE 82nd Ter,33138
"3475 SW 1st Ave APT 9, Miami, FL 33145",535,1.0,1,"Two Can  Realty, Inc.",Miami,https://www.zillow.com/homedetails/3475-SW-1st-Ave-APT-9-Miami-FL-33145/2083331112_zpid/,2083331112,https://photos.zillowstatic.com/fp/1e2c5fe67d310208e5067bdbf5c7a222-p_e.jpg,25.748974,-80.21498,"$209,000",FL,Condo for sale,FOR_SALE,3475 SW 1st Ave APT 9,33145
"10 SW South River Dr APT 809, Miami, FL 33130",1000,2.0,2,Jardack Commercial Realty Corp,Miami,https://www.zillow.com/homedetails/10-SW-South-River-Dr-APT-809-Miami-FL-33130/63614915_zpid/,63614915,https://photos.zillowstatic.com/fp/faf36f63514165e213ebb3665ca5cd6a-p_e.jpg,25.77335,-80.20214,"$405,000",FL,Condo for sale,FOR_SALE,10 SW South River Dr APT 809,33130
"1141 SW 15th Ave, Miami, FL 33135",1631,2.0,4,London Foster Realty,Miami,https://www.zillow.com/homedetails/1141-SW-15th-Ave-Miami-FL-33135/43852268_zpid/,43852268,https://photos.zillowstatic.com/fp/665a914f365ac3bba695c7337a5aeb64-p_e.jpg,25.762333,-80.21924,"$899,000",FL,House for sale,FOR_SALE,1141 SW 15th Ave,33135
"8500 SW 106th St, Miami, FL 33156",2384,3.0,4,BHHS EWM Realty,Miami,https://www.zillow.com/homedetails/8500-SW-106th-St-Miami-FL-33156/44283930_zpid/,44283930,https://photos.zillowstatic.com/fp/bea64be821d8fd0b5000a49ba9115fb4-p_e.jpg,25.671383,-80.333176,"$1,299,999",FL,Coming soon,FOR_SALE,8500 SW 106th St,33156
"10320 SW 103rd Ter, Miami, FL 33176",2030,2.0,4,Berkshire Hathaway HomeServices Florida Realty,Miami,https://www.zillow.com/homedetails/10320-SW-103rd-Ter-Miami-FL-33176/44277624_zpid/,44277624,https://photos.zillowstatic.com/fp/6b9b3a7db0709b4771068013bd6c8373-p_e.jpg,25.671555,-80.36156,"$793,000",FL,House for sale,FOR_SALE,10320 SW 103rd Ter,33176
"1801 SW 5th St, Miami, FL 33135",1776,,,"Julies Realty, LLC",Miami,https://www.zillow.com/homedetails/1801-SW-5th-St-Miami-FL-33135/43839000_zpid/,43839000,https://photos.zillowstatic.com/fp/7497f0cc2c7cda8f6680b62587c9ffc2-p_e.jpg,25.768408,-80.224884,"$525,000",FL,Multi-family home for sale,FOR_SALE,1801 SW 5th St,33135
"2950 SW 3rd Ave SUITE 9, Miami, FL 33129",904,1.0,1,Keller Williams Realty International Lifestyles,Miami,https://www.zillow.com/homedetails/2950-SW-3rd-Ave-SUITE-9-Miami-FL-33129/43866010_zpid/,43866010,https://photos.zillowstatic.com/fp/93f5bce769dbf9e5a2b866fb8ec7174b-p_e.jpg,25.753584,-80.21144,"$230,000",FL,Condo for sale,FOR_SALE,2950 SW 3rd Ave SUITE 9,33129
"1703 SW 4th Ave, Miami, FL 33129",3233,4.0,3,Berkshire Hathaway FL Realty,Miami,https://www.zillow.com/homedetails/1703-SW-4th-Ave-Miami-FL-33129/2066458239_zpid/,2066458239,https://photos.zillowstatic.com/fp/493845d5ddba5c930a5028d9253a427e-p_e.jpg,25.76213,-80.2011,"$2,690,000",FL,New construction,FOR_SALE,1703 SW 4th Ave,33129
"11652 SW 91st Ter, Miami, FL 33176",1890,2.0,3,BHHS EWM Realty,Miami,https://www.zillow.com/homedetails/11652-SW-91st-Ter-Miami-FL-33176/44279386_zpid/,44279386,https://photos.zillowstatic.com/fp/a102013f46eeb5825574e148b84586fb-p_e.jpg,25.68347,-80.38256,"$462,500",FL,Townhouse for sale,FOR_SALE,11652 SW 91st Ter,33176
"(undisclosed Address), Miami, FL 33133",2593,4.0,3,Miami Forever Real Estate,Miami,https://www.zillow.com/homedetails/Miami-FL-33133/2099604998_zpid/,2099604998,https://photos.zillowstatic.com/fp/285a91e8da925af5ea72e5fa87bf063b-p_e.jpg,,,"$2,200,000",FL,House for sale,FOR_SALE,(undisclosed Address),33133
"(undisclosed Address), Miami, FL 33129",1316,3.0,2,Miami Forever Real Estate,Miami,https://www.zillow.com/homedetails/Miami-FL-33129/43870408_zpid/,43870408,https://photos.zillowstatic.com/fp/bbfaf3e9d546f4c6bd64643751db3841-p_e.jpg,,,"$850,000",FL,Condo for sale,FOR_SALE,(undisclosed Address),33129
"475 Brickell Ave APT 2813, Miami, FL 33131",1012,2.0,2,"Inmobiliata, LLC",Miami,https://www.zillow.com/homedetails/475-Brickell-Ave-APT-2813-Miami-FL-33131/92441034_zpid/,92441034,https://photos.zillowstatic.com/fp/f5ed4628d502c35582f7b7a8b8071940-p_e.jpg,25.769077,-80.1886,"$1,050,000",FL,Condo for sale,FOR_SALE,475 Brickell Ave APT 2813,33131
"2627 S Bayshore Dr APT 1104, Miami, FL 33133",2640,4.0,3,E. M. Capital Inc,Miami,https://www.zillow.com/homedetails/2627-S-Bayshore-Dr-APT-1104-Miami-FL-33133/70767117_zpid/,70767117,https://photos.zillowstatic.com/fp/246e99e0524b515bc57c59963c71cb40-p_e.jpg,25.732395,-80.235085,"$4,975,000",FL,Condo for sale,FOR_SALE,2627 S Bayshore Dr APT 1104,33133
"501 NE 31st St UNIT 3507, Miami, FL 33137",746,2.0,1,"305 International Realty, LLC.",Miami,https://www.zillow.com/homedetails/501-NE-31st-St-UNIT-3507-Miami-FL-33137/306394927_zpid/,306394927,https://photos.zillowstatic.com/fp/53eb30f45fbe5eb9a04591d4229d24b9-p_e.jpg,25.807034,-80.18732,"$475,000",FL,Condo for sale,FOR_SALE,501 NE 31st St UNIT 3507,33137
"1600 NE 1st Ave #3311, Miami, FL 33132",,2.0,1,Atlas Realty & Investments LLC,Miami,https://www.zillow.com/homedetails/1600-NE-1st-Ave-3311-Miami-FL-33132/308907466_zpid/,308907466,https://photos.zillowstatic.com/fp/bc3dc278f77b1c52b87396af6f6ef718-p_e.jpg,25.79104,-80.19283,"$493,000",FL,Condo for sale,FOR_SALE,1600 NE 1st Ave #3311,33132
"10020 SW 46th Ter, Miami, FL 33165",1823,3.0,5,Epic Capital Realty,Miami,https://www.zillow.com/homedetails/10020-SW-46th-Ter-Miami-FL-33165/2122714935_zpid/,2122714935,https://photos.zillowstatic.com/fp/8ae555e0e705420cc025e9e22403f7ea-p_e.jpg,25.724228,-80.35718,"$650,000",FL,House for sale,FOR_SALE,10020 SW 46th Ter,33165
"15 NW 52nd St, Miami, FL 33127",1196,3.0,4,Florida Capital Realty,Miami,https://www.zillow.com/homedetails/15-NW-52nd-St-Miami-FL-33127/43814022_zpid/,43814022,https://photos.zillowstatic.com/fp/f1c97207a0f9a1e39cec8d02250743c4-p_e.jpg,25.823677,-80.19619,"$999,900",FL,House for sale,FOR_SALE,15 NW 52nd St,33127
"801 S Miami Ave #304, Miami, FL 33130",553,1.0,0,Miami Realty Solution Group,Miami,https://www.zillow.com/homedetails/801-S-Miami-Ave-304-Miami-FL-33130/2085988194_zpid/,2085988194,https://photos.zillowstatic.com/fp/0f017e82cf7ef62158a403f9a2f7fbc8-p_e.jpg,,,"$490,000",FL,Condo for sale,FOR_SALE,801 S Miami Ave #304,33130
"68 SE 6th St APT 4201, Miami, FL 33131",4066,5.0,4,Fortune International Realty,Miami,https://www.zillow.com/homedetails/68-SE-6th-St-APT-4201-Miami-FL-33131/247680981_zpid/,247680981,https://photos.zillowstatic.com/fp/05fc7fbf015def66eeb2e68af6d9ab17-p_e.jpg,25.768076,-80.19268,"$6,280,000",FL,Condo for sale,FOR_SALE,68 SE 6th St APT 4201,33131
"1425 Brickell Ave APT 53A, Miami, FL 33131",1616,2.0,2,Luxury Living Realty,Miami,https://www.zillow.com/homedetails/1425-Brickell-Ave-APT-53A-Miami-FL-33131/63614976_zpid/,63614976,https://photos.zillowstatic.com/fp/a65e74079450e411a3ec4c72474cb751-p_e.jpg,25.759037,-80.191956,"$1,700,000",FL,Condo for sale,FOR_SALE,1425 Brickell Ave APT 53A,33131
"50 SW 52nd Ave, Miami, FL 33134",1894,2.0,3,Fortune International Realty B,Miami,https://www.zillow.com/homedetails/50-SW-52nd-Ave-Miami-FL-33134/43845097_zpid/,43845097,https://photos.zillowstatic.com/fp/d978e44de657163ca610d875a1c6cf00-p_e.jpg,25.770424,-80.28015,"$614,995",FL,House for sale,FOR_SALE,50 SW 52nd Ave,33134
"1155 Brickell Bay Dr APT 602, Miami, FL 33131",1470,2.0,3,SR International Inc. R.E.,Miami,https://www.zillow.com/homedetails/1155-Brickell-Bay-Dr-APT-602-Miami-FL-33131/60793412_zpid/,60793412,https://photos.zillowstatic.com/fp/0ac092113d4465eeae22de07fb7f96b3-p_e.jpg,25.76216,-80.18911,"$649,000",FL,Condo for sale,FOR_SALE,1155 Brickell Bay Dr APT 602,33131
"10180 SW 88th St APT 405, Miami, FL 33176",1430,3.0,3,Florida Realty of Miami Corp,Miami,https://www.zillow.com/homedetails/10180-SW-88th-St-APT-405-Miami-FL-33176/54696585_zpid/,54696585,https://photos.zillowstatic.com/fp/98e0b2b81b57a5751e61b1010a904816-p_e.jpg,25.686033,-80.35783,"$385,000",FL,Townhouse for sale,FOR_SALE,10180 SW 88th St APT 405,33176
"Panoramic Residence 01 Line - Water View - 5 Bed Plan, Aston Martin",3877,6.0,5,,Miami,https://www.zillow.com/community/aston-martin/2067054323_zpid/,2067054323,https://photos.zillowstatic.com/fp/a29f5adea68fcf71ef2894e14e77cdce-p_e.jpg,25.770777,-80.18752,"$6,320,900+",FL,New construction,FOR_SALE,"Panoramic Residence 01 Line - Water View - 5 Bed Plan, Aston Martin",33131
"5099 NW 7th St APT 105, Miami, FL 33126",1056,1.0,2,United Real Estate Miami,Miami,https://www.zillow.com/homedetails/5099-NW-7th-St-APT-105-Miami-FL-33126/70772827_zpid/,70772827,https://photos.zillowstatic.com/fp/85461b21e44ca64756940b1ef41bd979-p_e.jpg,25.779785,-80.2773,"$285,000",FL,Condo for sale,FOR_SALE,5099 NW 7th St APT 105,33126
"495 Brickell Ave APT 3401, Miami, FL 33131",1870,2.0,3,Sterling Equity Realty LLC,Miami,https://www.zillow.com/homedetails/495-Brickell-Ave-APT-3401-Miami-FL-33131/92444730_zpid/,92444730,https://photos.zillowstatic.com/fp/7fb0be5453442afd7fb8050e9272f60c-p_e.jpg,25.768187,-80.188324,"$1,675,000",FL,Condo for sale,FOR_SALE,495 Brickell Ave APT 3401,33131
"488 NE 18th St UNIT 209, Miami, FL 33132",1038,3.0,2,Miami Dream Properties Inc.,Miami,https://www.zillow.com/homedetails/488-NE-18th-St-UNIT-209-Miami-FL-33132/249256800_zpid/,249256800,https://photos.zillowstatic.com/fp/c8b957567b75c1f2a218891848b224f5-p_e.jpg,25.79351,-80.18751,"$560,000",FL,Condo for sale,FOR_SALE,488 NE 18th St UNIT 209,33132
"1000 Brickell Plz #1805, Miami, FL 33131",1019,2.0,1,Concept International Realty Inc,Miami,https://www.zillow.com/homedetails/1000-Brickell-Plz-1805-Miami-FL-33131/305972766_zpid/,305972766,https://photos.zillowstatic.com/fp/3702e68189c3f24501653d1d88c62aca-p_e.jpg,25.764446,-80.19253,"$920,000",FL,Condo for sale,FOR_SALE,1000 Brickell Plz #1805,33131
"14715 SW 104th Pl, Miami, FL 33176",1238,2.0,3,Modern World Realty,Miami,https://www.zillow.com/homedetails/14715-SW-104th-Pl-Miami-FL-33176/44290185_zpid/,44290185,https://photos.zillowstatic.com/fp/87d9bf1336f38c77c214ab145c071927-p_e.jpg,25.632254,-80.36378,"$475,000",FL,House for sale,FOR_SALE,14715 SW 104th Pl,33176
"15475 SW 138th Ter, Miami, FL 33196",1978,2.0,3,"Brokers, LLC",Miami,https://www.zillow.com/homedetails/15475-SW-138th-Ter-Miami-FL-33196/44329222_zpid/,44329222,https://photos.zillowstatic.com/fp/d9a72cafb19ead0e301ab53fa776bd87-p_e.jpg,25.63808,-80.44519,"$520,000",FL,House for sale,FOR_SALE,15475 SW 138th Ter,33196
"1884 Brickell Ave #3, Miami, FL 33129",2700,3.0,3,BHHS EWM Realty,Miami,https://www.zillow.com/homedetails/1884-Brickell-Ave-3-Miami-FL-33129/43868346_zpid/,43868346,https://photos.zillowstatic.com/fp/66484eb0f6456958bd7e7d639ffddb78-p_e.jpg,25.75503,-80.197815,"$1,150,000",FL,Townhouse for sale,FOR_SALE,1884 Brickell Ave #3,33129
"488 NE 18th St UNIT 4108, Miami, FL 33132",888,2.0,1,Aval Realty LLC,Miami,https://www.zillow.com/homedetails/488-NE-18th-St-UNIT-4108-Miami-FL-33132/306397806_zpid/,306397806,https://photos.zillowstatic.com/fp/ef1d281ee48aec9e411e2147e89c9a69-p_e.jpg,25.79351,-80.18751,"$679,000",FL,Condo for sale,FOR_SALE,488 NE 18th St UNIT 4108,33132
"1040 Biscayne Blvd APT 4403, Miami, FL 33132",4327,6.0,4,Insignia International Properties,Miami,https://www.zillow.com/homedetails/1040-Biscayne-Blvd-APT-4403-Miami-FL-33132/82416866_zpid/,82416866,https://photos.zillowstatic.com/fp/44047d755c56d5913462ac2d94ec4348-p_e.jpg,25.78467,-80.19018,"$4,250,000",FL,Condo for sale,FOR_SALE,1040 Biscayne Blvd APT 4403,33132
"4-Bedroom SKY Collection - Floors 80-86 R2 Plan, Waldorf Astoria Residences",3542,5.0,4,,Miami,https://www.zillow.com/community/waldorf-astoria-residences/2066534594_zpid/,2066534594,https://photos.zillowstatic.com/fp/7c34789e855abcec10345fd0606c971e-p_e.jpg,25.777695,-80.1887,"$8,920,404+",FL,New construction,FOR_SALE,"4-Bedroom SKY Collection - Floors 80-86 R2 Plan, Waldorf Astoria Residences",33130
"Line 01 Floors 38-43 - 5 Bedrooms Penthouses Plan, UNA Residences",4725,7.0,5,,Miami,https://www.zillow.com/community/una-residences/2067054349_zpid/,2067054349,https://photos.zillowstatic.com/fp/ca0837ce6e61af01966e73766860cb2f-p_e.jpg,25.749235,-80.201164,"$7,150,000+",FL,New construction,FOR_SALE,"Line 01 Floors 38-43 - 5 Bedrooms Penthouses Plan, UNA Residences",33129
"Residence 04 Plan, Baccarat Residences",2018,3.0,2,,Miami,https://www.zillow.com/community/baccarat-residences/2066653474_zpid/,2066653474,https://photos.zillowstatic.com/fp/682caaa054424b84c19960cc16198de2-p_e.jpg,25.769188,-80.19043,"$1,863,900+",FL,New construction,FOR_SALE,"Residence 04 Plan, Baccarat Residences",33131
"(undisclosed Address), Miami, FL 33186",2550,3.0,4,Fusion Real Estate Team Inc,Miami,https://www.zillow.com/homedetails/Miami-FL-33186/55178547_zpid/,55178547,https://photos.zillowstatic.com/fp/d07974bbe078d598214d3f8bc62ee20d-p_e.jpg,,,"$613,750",FL,House for sale,FOR_SALE,(undisclosed Address),33186
"133 NE 2nd Ave APT 2313, Miami, FL 33132",1153,2.0,2,EXP Realty LLC,Miami,https://www.zillow.com/homedetails/133-NE-2nd-Ave-APT-2313-Miami-FL-33132/82069380_zpid/,82069380,https://photos.zillowstatic.com/fp/df46ed3f9a4010ca1e3704422749aaa4-p_e.jpg,25.776102,-80.18969,"$430,000",FL,Condo for sale,FOR_SALE,133 NE 2nd Ave APT 2313,33132
"PH 01 Line - Water View & Private Elevator Plan, Aston Martin",8871,7.0,4,,Miami,https://www.zillow.com/community/aston-martin/2066611944_zpid/,2066611944,https://photos.zillowstatic.com/fp/d75d13625773e677a9ab0a9c3f48584e-p_e.jpg,25.770777,-80.18752,"$21,515,900+",FL,New construction,FOR_SALE,"PH 01 Line - Water View & Private Elevator Plan, Aston Martin",33131
"2501 S Douglas Rd APT 202, Miami, FL 33133",700,1.0,1,United Realty Group Inc,Miami,https://www.zillow.com/homedetails/2501-S-Douglas-Rd-APT-202-Miami-FL-33133/2126183548_zpid/,2126183548,https://photos.zillowstatic.com/fp/03e09ffe83ede8a84ed48f05e4158780-p_e.jpg,25.744303,-80.25407,"$300,000",FL,Condo for sale,FOR_SALE,2501 S Douglas Rd APT 202,33133
"876 NW 1st St, Miami, FL 33128",2622,,,Miami Premier Realty,Miami,https://www.zillow.com/homedetails/876-NW-1st-St-Miami-FL-33128/2066475819_zpid/,2066475819,https://photos.zillowstatic.com/fp/55215a0c967de99780d7730d30fbd427-p_e.jpg,25.77447,-80.20927,"$985,999",FL,Multi-family home for sale,FOR_SALE,876 NW 1st St,33128
"3301 NE 1st Ave APT H1105, Miami, FL 33137",761,2.0,1,PG Management Group LLC,Miami,https://www.zillow.com/homedetails/3301-NE-1st-Ave-APT-H1105-Miami-FL-33137/92450006_zpid/,92450006,https://photos.zillowstatic.com/fp/8b22261dbdb890919d3f2047f0f75f00-p_e.jpg,25.807764,-80.19196,"$405,000",FL,Condo for sale,FOR_SALE,3301 NE 1st Ave APT H1105,33137
"30 Samana Dr, Miami, FL 33133",2153,3.0,3,"Proyecta Real Estate, LLC",Miami,https://www.zillow.com/homedetails/30-Samana-Dr-Miami-FL-33133/43853748_zpid/,43853748,https://photos.zillowstatic.com/fp/781eab7936c5bb0eaae1348612c72727-p_e.jpg,25.746885,-80.21425,"$2,199,000",FL,House for sale,FOR_SALE,30 Samana Dr,33133
"1300 S Miami Ave UNIT 3707, Miami, FL 33130",570,1.0,1,US Venture Partners Corp,Miami,https://www.zillow.com/homedetails/1300-S-Miami-Ave-UNIT-3707-Miami-FL-33130/247680505_zpid/,247680505,https://photos.zillowstatic.com/fp/e8d80c8b83f172f58352220db47f0b97-p_e.jpg,25.761328,-80.19377,"$535,000",FL,Condo for sale,FOR_SALE,1300 S Miami Ave UNIT 3707,33130
"2-BEDROOM - 08 (Floors 16-46) Plan, E11EVEN Residences Beyond",993,2.0,2,,Miami,https://www.zillow.com/community/e11even-residences-beyond/2067357306_zpid/,2067357306,https://photos.zillowstatic.com/fp/07b68f60814870f636b7ad29823cf573-p_e.jpg,25.784502,-80.1936,"$1,078,428+",FL,New construction,FOR_SALE,"2-BEDROOM - 08 (Floors 16-46) Plan, E11EVEN Residences Beyond",33132
"950 Brickell Bay Dr APT 3810, Miami, FL 33131",1278,3.0,2,"Compass Florida, LLC",Miami,https://www.zillow.com/homedetails/950-Brickell-Bay-Dr-APT-3810-Miami-FL-33131/92443975_zpid/,92443975,https://photos.zillowstatic.com/fp/185349eacacaeda8afadc37d274429f8-p_e.jpg,25.765005,-80.19016,"$950,000",FL,Condo for sale,FOR_SALE,950 Brickell Bay Dr APT 3810,33131
"888 Brickell Key Dr APT 1104, Miami, FL 33131",2050,3.0,3,Cervera Real Estate Inc.,Miami,https://www.zillow.com/homedetails/888-Brickell-Key-Dr-APT-1104-Miami-FL-33131/43873379_zpid/,43873379,https://photos.zillowstatic.com/fp/dc74efad2e14b4288604a39578fc2c7f-p_e.jpg,25.769106,-80.18476,"$1,475,000",FL,Condo for sale,FOR_SALE,888 Brickell Key Dr APT 1104,33131
"1871 NW South River Dr UNIT 1205, Miami, FL 33125",857,2.0,2,Urban International Realty,Miami,https://www.zillow.com/homedetails/1871-NW-South-River-Dr-UNIT-1205-Miami-FL-33125/113379738_zpid/,113379738,https://photos.zillowstatic.com/fp/52746ff3e4929cdf353fe2342e217d02-p_e.jpg,25.78521,-80.2259,"$385,000",FL,Condo for sale,FOR_SALE,1871 NW South River Dr UNIT 1205,33125
"1600 NE 1st Ave #3703, Miami, FL 33132",588,1.0,0,"Citadela Realty, Inc",Miami,https://www.zillow.com/homedetails/1600-NE-1st-Ave-3703-Miami-FL-33132/308907315_zpid/,308907315,https://photos.zillowstatic.com/fp/e72bee410c0ebc8243ef75de98e6707e-p_e.jpg,25.79104,-80.19283,"$415,000",FL,Condo for sale,FOR_SALE,1600 NE 1st Ave #3703,33132
"1300 S Miami Ave #2610, Miami, FL 33130",1155,2.0,2,Fortune International Realty B,Miami,https://www.zillow.com/homedetails/1300-S-Miami-Ave-2610-Miami-FL-33130/247651934_zpid/,247651934,https://photos.zillowstatic.com/fp/c701ce8c8df5d267a803d38196ddd965-p_e.jpg,25.761328,-80.19377,"$890,000",FL,Condo for sale,FOR_SALE,1300 S Miami Ave #2610,33130
"1750 N Bayshore Dr APT 1712, Miami, FL 33132",791,1.0,1,"Omni Real Estate Services, LLC",Miami,https://www.zillow.com/homedetails/1750-N-Bayshore-Dr-APT-1712-Miami-FL-33132/82415193_zpid/,82415193,https://photos.zillowstatic.com/fp/f3f3ce0d38272e5f7586f10877d0fcb5-p_e.jpg,25.79248,-80.18715,"$345,000",FL,Condo for sale,FOR_SALE,1750 N Bayshore Dr APT 1712,33132
"8325 SW 41st Ter, Miami, FL 33155",1809,3.0,4,Florida Capital Realty,Miami,https://www.zillow.com/homedetails/8325-SW-41st-Ter-Miami-FL-33155/44205666_zpid/,44205666,https://photos.zillowstatic.com/fp/ecb6ac3882fc8f05ebb6d28e008f47b2-p_e.jpg,25.73132,-80.33022,"$985,000",FL,House for sale,FOR_SALE,8325 SW 41st Ter,33155
"1111 SW 1st Ave APT 1524, Miami, FL 33130",694,1.0,1,Capital Intl Realty LLC,Miami,https://www.zillow.com/homedetails/1111-SW-1st-Ave-APT-1524-Miami-FL-33130/2134355832_zpid/,2134355832,https://photos.zillowstatic.com/fp/56ab07494f4dd2bad2866d85b2e59f38-p_e.jpg,25.763054,-80.19458,"$330,000",FL,Condo for sale,FOR_SALE,1111 SW 1st Ave APT 1524,33130
"2397 SW 13th St, Miami, FL 33145",1376,2.0,2,Redfin Corporation,Miami,https://www.zillow.com/homedetails/2397-SW-13th-St-Miami-FL-33145/43850612_zpid/,43850612,https://photos.zillowstatic.com/fp/fd59e3f0813cbeb848358d69caec57dd-p_e.jpg,25.76057,-80.23426,"$650,000",FL,House for sale,FOR_SALE,2397 SW 13th St,33145
"2978 SW 14th St, Miami, FL 33145",2147,2.0,4,Onepath Realty LLC,Miami,https://www.zillow.com/homedetails/2978-SW-14th-St-Miami-FL-33145/43847505_zpid/,43847505,https://photos.zillowstatic.com/fp/8ef9fdc87918564e87392426757b9b2f-p_e.jpg,25.759245,-80.24221,"$975,000",FL,House for sale,FOR_SALE,2978 SW 14th St,33145
"6840 SW 25th Ter, Miami, FL 33155",1005,3.0,3,"Block Capital Realty, LLC.",Miami,https://www.zillow.com/homedetails/6840-SW-25th-Ter-Miami-FL-33155/44190766_zpid/,44190766,https://photos.zillowstatic.com/fp/2fbbd62f802751ca85e890aa14319a24-p_e.jpg,25.746353,-80.30639,"$500,000",FL,House for sale,FOR_SALE,6840 SW 25th Ter,33155
"Casa 01 (L2-46) Plan, CasaBella by B&BItalia",1953,4.0,3,,Miami,https://www.zillow.com/community/casabella-by-b-bitalia/2066543936_zpid/,2066543936,https://photos.zillowstatic.com/fp/635856d498671a6284118927c9d7839b-p_e.jpg,25.789082,-80.189545,"$1,365,900+",FL,New construction,FOR_SALE,"Casa 01 (L2-46) Plan, CasaBella by B&BItalia",33132
"300 Biscayne Blvd #T-3203, Miami, FL 33131",544,1.0,1,Capital Intl Realty LLC,Miami,https://www.zillow.com/homedetails/300-Biscayne-Blvd-T-3203-Miami-FL-33131/2066480917_zpid/,2066480917,https://photos.zillowstatic.com/fp/59bb43a90841f5a2ed30956403cc7617-p_e.jpg,,,"$315,000",FL,Condo for sale,FOR_SALE,300 Biscayne Blvd #T-3203,33131
"9394 SW 77th Ave APT F8, Miami, FL 33156",875,1.0,1,Coldwell Banker Realty,Miami,https://www.zillow.com/homedetails/9394-SW-77th-Ave-APT-F8-Miami-FL-33156/44275548_zpid/,44275548,https://photos.zillowstatic.com/fp/b0d6277e79b36b25ee53fe2820132b3c-p_e.jpg,25.683947,-80.32031,"$200,000",FL,Condo for sale,FOR_SALE,9394 SW 77th Ave APT F8,33156
"501 NE 31st St #2008, Miami, FL 33137",1084,2.0,2,Best of Luxury Realty Corp.,Miami,https://www.zillow.com/homedetails/501-NE-31st-St-2008-Miami-FL-33137/306391862_zpid/,306391862,https://photos.zillowstatic.com/fp/9ef3343da740764b7fbc58b46a0be5e3-p_e.jpg,25.807034,-80.18732,"$800,000",FL,Condo for sale,FOR_SALE,501 NE 31st St #2008,33137
"1451 Brickell Ave UNIT 1704, Miami, FL 33131",772,2.0,1,Douglas Elliman,Miami,https://www.zillow.com/homedetails/1451-Brickell-Ave-UNIT-1704-Miami-FL-33131/247679139_zpid/,247679139,https://photos.zillowstatic.com/fp/db137166bf1277d5d893bfc68da5290c-p_e.jpg,25.758121,-80.1924,"$888,000",FL,Condo for sale,FOR_SALE,1451 Brickell Ave UNIT 1704,33131
"7540 SW 56th Ct, Miami, FL 33143",3104,4.0,3,BHHS EWM Realty,Miami,https://www.zillow.com/homedetails/7540-SW-56th-Ct-Miami-FL-33143/79858762_zpid/,79858762,https://photos.zillowstatic.com/fp/dfb4549ca03bbf035048b5894800889e-p_e.jpg,25.701323,-80.28503,"$1,600,000",FL,Townhouse for sale,FOR_SALE,7540 SW 56th Ct,33143
"300 Biscayne Boulevard Way #3904, Miami, FL 33131",3536,6.0,3,Cervera Real Estate Inc.,Miami,https://www.zillow.com/homedetails/300-Biscayne-Boulevard-Way-3904-Miami-FL-33131/2066483197_zpid/,2066483197,https://photos.zillowstatic.com/fp/f8c38e647d56002c7166bcbf0d31d64d-p_e.jpg,25.770828,-80.18756,"$4,690,900",FL,Condo for sale,FOR_SALE,300 Biscayne Boulevard Way #3904,33131
"3011 SW 78th Ct, Miami, FL 33155",3029,5.0,5,The Corcoran Group,Miami,https://www.zillow.com/homedetails/3011-SW-78th-Ct-Miami-FL-33155/44192471_zpid/,44192471,https://photos.zillowstatic.com/fp/02b50c2e1f337bf60112d760a5d792ba-p_e.jpg,25.742128,-80.3225,"$750,000",FL,House for sale,FOR_SALE,3011 SW 78th Ct,33155
"3400 SW 27th Ave APT 1004, Miami, FL 33133",1666,3.0,2,"Slesnick & Jochem, LLP.",Miami,https://www.zillow.com/homedetails/3400-SW-27th-Ave-APT-1004-Miami-FL-33133/60793118_zpid/,60793118,https://photos.zillowstatic.com/fp/20305cd40a7e13a3b319b9f3cc05f86e-p_e.jpg,25.729641,-80.23794,"$1,140,000",FL,Condo for sale,FOR_SALE,3400 SW 27th Ave APT 1004,33133
"9235 SW 41st Ter, Miami, FL 33165",2180,3.0,5,AmeriFirst Realty,Miami,https://www.zillow.com/homedetails/9235-SW-41st-Ter-Miami-FL-33165/44203606_zpid/,44203606,https://photos.zillowstatic.com/fp/e4817b03ce1afe7de7c84c8465739e4b-p_e.jpg,25.73094,-80.34462,"$675,000",FL,House for sale,FOR_SALE,9235 SW 41st Ter,33165
"STUDIO with Balcony (Floors 16-46) R11 Plan, E11EVEN Residences Beyond",405,1.0,,,Miami,https://www.zillow.com/community/e11even-residences-beyond/2067289263_zpid/,2067289263,https://photos.zillowstatic.com/fp/380936d62882c69605f386937cdebc4a-p_e.jpg,25.784502,-80.1936,"$473,456+",FL,New construction,FOR_SALE,"STUDIO with Balcony (Floors 16-46) R11 Plan, E11EVEN Residences Beyond",33132
"2489 SW 11th St, Miami, FL 33135",2613,,,"Compass Florida, LLC.",Miami,https://www.zillow.com/homedetails/2489-SW-11th-St-Miami-FL-33135/43850712_zpid/,43850712,https://photos.zillowstatic.com/fp/a5dcb40694e789a5820a2bbb8d3d5444-p_e.jpg,25.762747,-80.236305,"$1,195,000",FL,Multi-family home for sale,FOR_SALE,2489 SW 11th St,33135
"520 Brickell Key Dr APT A306, Miami, FL 33131",2156,3.0,3,Fast Service Realty,Miami,https://www.zillow.com/homedetails/520-Brickell-Key-Dr-APT-A306-Miami-FL-33131/43872389_zpid/,43872389,https://photos.zillowstatic.com/fp/a59ff591fe5e64b9e7d2048132641df4-p_e.jpg,25.767235,-80.18427,"$850,000",FL,Condo for sale,FOR_SALE,520 Brickell Key Dr APT A306,33131
"1274 SW 5th St, Miami, FL 33135",1470,2.0,3,Core International Realty,Miami,https://www.zillow.com/homedetails/1274-SW-5th-St-Miami-FL-33135/43837901_zpid/,43837901,https://photos.zillowstatic.com/fp/4be61d2e97bbcd820de0b72b9b111344-p_e.jpg,25.768398,-80.21605,"$620,000",FL,House for sale,FOR_SALE,1274 SW 5th St,33135
"1122 NW 59th St, Miami, FL 33127",840,1.0,3,"The Property Pros Real Estate,",Miami,https://www.zillow.com/homedetails/1122-NW-59th-St-Miami-FL-33127/43809248_zpid/,43809248,https://photos.zillowstatic.com/fp/933a45ed5d4b2a3eb886fc6632608f73-p_e.jpg,25.829943,-80.21515,"$333,000",FL,House for sale,FOR_SALE,1122 NW 59th St,33127
"600 NW 32nd Pl APT 313, Miami, FL 33125",714,1.0,2,Miami New Realty,Miami,https://www.zillow.com/homedetails/600-NW-32nd-Pl-APT-313-Miami-FL-33125/70774385_zpid/,70774385,https://photos.zillowstatic.com/fp/669fbb4c3ea4bbbdc257cd44d844b9f6-p_e.jpg,25.778685,-80.24968,"$195,000",FL,Condo for sale,FOR_SALE,600 NW 32nd Pl APT 313,33125
"5541 SW 5th St, Miami, FL 33134",1048,2.0,3,"Urban Star Realty, LLC.",Miami,https://www.zillow.com/homedetails/5541-SW-5th-St-Miami-FL-33134/43844734_zpid/,43844734,https://photos.zillowstatic.com/fp/5afc143ac603e80204b1b9ca46f4c0c8-p_e.jpg,25.766788,-80.284805,"$649,000",FL,House for sale,FOR_SALE,5541 SW 5th St,33134
"2900 NE 7th Ave UNIT 4106, Miami, FL 33137",912,2.0,2,Fortune International Realty B,Miami,https://www.zillow.com/homedetails/2900-NE-7th-Ave-UNIT-4106-Miami-FL-33137/123865811_zpid/,123865811,https://photos.zillowstatic.com/fp/18c6c8a0d7f0df99303ca853e257855b-p_e.jpg,25.804876,-80.18601,"$798,000",FL,Condo for sale,FOR_SALE,2900 NE 7th Ave UNIT 4106,33137
"1600 NW 42nd St, Miami, FL 33142",1036,,,Century 21 Continental Realty,Miami,https://www.zillow.com/homedetails/1600-NW-42nd-St-Miami-FL-33142/43813111_zpid/,43813111,https://photos.zillowstatic.com/fp/eb1ca4caf8457e827e96c5b5fc0b1613-p_e.jpg,25.813833,-80.2232,"$379,000",FL,Multi-family home for sale,FOR_SALE,1600 NW 42nd St,33142
"3730 SW 28th St, Miami, FL 33134",,,,Capital Homes Inc,Miami,https://www.zillow.com/homedetails/3730-SW-28th-St-Miami-FL-33134/43859961_zpid/,43859961,https://photos.zillowstatic.com/fp/03f1b64255f76f71f0a312f31f70350e-p_e.jpg,25.73889,-80.25481,"$800,000",FL,Lot / Land for sale,FOR_SALE,3730 SW 28th St,33134
"424 SW 7th St APT 101, Miami, FL 33130",772,1.0,2,Clover 4 Group LLC,Miami,https://www.zillow.com/homedetails/424-SW-7th-St-APT-101-Miami-FL-33130/43866107_zpid/,43866107,https://photos.zillowstatic.com/fp/18e5c0e4c7e317367dac17483e74acc0-p_e.jpg,25.766853,-80.20147,"$289,000",FL,Condo for sale,FOR_SALE,424 SW 7th St APT 101,33130
"2627 S Bayshore Dr APT 1608, Miami, FL 33133",1595,3.0,2,One Sotheby's International Realty,Miami,https://www.zillow.com/homedetails/2627-S-Bayshore-Dr-APT-1608-Miami-FL-33133/70775035_zpid/,70775035,https://photos.zillowstatic.com/fp/28c656015945deb1541a0dc232e10d5b-p_e.jpg,25.732395,-80.235085,"$1,990,000",FL,Condo for sale,FOR_SALE,2627 S Bayshore Dr APT 1608,33133
"5085 NW 7th St APT 1001, Miami, FL 33126",1080,2.0,2,MVP Realty Group LLC,Miami,https://www.zillow.com/homedetails/5085-NW-7th-St-APT-1001-Miami-FL-33126/70766535_zpid/,70766535,https://photos.zillowstatic.com/fp/795e4dbd12b79344db70086e98810312-p_e.jpg,25.779522,-80.27758,"$339,000",FL,Condo for sale,FOR_SALE,5085 NW 7th St APT 1001,33126
"Line 02 Floors 28-37 - 4 Bedrooms Penthous Plan, UNA Residences",2743,5.0,4,,Miami,https://www.zillow.com/community/una-residences/2066811948_zpid/,2066811948,https://photos.zillowstatic.com/fp/ca0837ce6e61af01966e73766860cb2f-p_e.jpg,25.749235,-80.201164,"$4,700,000+",FL,New construction,FOR_SALE,"Line 02 Floors 28-37 - 4 Bedrooms Penthous Plan, UNA Residences",33129
"2038 SW 3rd St, Miami, FL 33135",3134,,,"Prestige Realty Group, LLC",Miami,https://www.zillow.com/homedetails/2038-SW-3rd-St-Miami-FL-33135/2112056533_zpid/,2112056533,https://photos.zillowstatic.com/fp/b57b220b97441a6cb7ef41549e182d1a-p_e.jpg,25.769457,-80.22878,"$900,000",FL,Multi-family home for sale,FOR_SALE,2038 SW 3rd St,33135
"9055 SW 73rd Ct APT 205, Miami, FL 33156",918,1.0,1,Capital Intl Realty LLC,Miami,https://www.zillow.com/homedetails/9055-SW-73rd-Ct-APT-205-Miami-FL-33156/72560313_zpid/,72560313,https://photos.zillowstatic.com/fp/0cfa94eeaa3d41a755493d7b7eef38b8-p_e.jpg,25.686594,-80.31402,"$280,000",FL,Condo for sale,FOR_SALE,9055 SW 73rd Ct APT 205,33156
"08 Line Plan, Reach & Rise Signature Residences",986,2.0,1,,Miami,https://www.zillow.com/community/reach-rise-signature-residences/2068711152_zpid/,2068711152,https://photos.zillowstatic.com/fp/899d993d73639c5cb6d0786ea00e6f82-p_e.jpg,25.767197,-80.19451,"$655,000+",FL,New construction,FOR_SALE,"08 Line Plan, Reach & Rise Signature Residences",33130
"821 SW 2nd St APT 9, Miami, FL 33130",672,2.0,1,Partnership Realty Inc.,Miami,https://www.zillow.com/homedetails/821-SW-2nd-St-APT-9-Miami-FL-33130/70775235_zpid/,70775235,https://photos.zillowstatic.com/fp/240da98be585002f75a429cc2a58cb79-p_e.jpg,25.772017,-80.208115,"$185,000",FL,Condo for sale,FOR_SALE,821 SW 2nd St APT 9,33130
"121 NE 34th St UNIT 2909, Miami, FL 33137",972,2.0,2,LG Realty Group Inc.,Miami,https://www.zillow.com/homedetails/121-NE-34th-St-UNIT-2909-Miami-FL-33137/306391745_zpid/,306391745,https://photos.zillowstatic.com/fp/93b4ebe27ed615071052c8a99e128d50-p_e.jpg,25.808714,-80.19209,"$725,000",FL,Condo for sale,FOR_SALE,121 NE 34th St UNIT 2909,33137
"7371 SW 90th St #TOWNHOUSE, Miami, FL 33156",1572,3.0,2,"Imperial Home Realty, LLC.",Miami,https://www.zillow.com/homedetails/7371-SW-90th-St-TOWNHOUSE-Miami-FL-33156/2072396075_zpid/,2072396075,https://photos.zillowstatic.com/fp/114116e3fccaf89c33d98554986a5b24-p_e.jpg,25.687935,-80.31461,"$465,000",FL,Condo for sale,FOR_SALE,7371 SW 90th St #TOWNHOUSE,33156
"60 SW 13th St APT 3804, Miami, FL 33130",1148,3.0,2,Capital Intl Realty LLC,Miami,https://www.zillow.com/homedetails/60-SW-13th-St-APT-3804-Miami-FL-33130/92442578_zpid/,92442578,https://photos.zillowstatic.com/fp/70987e4a7b62367491b53ee7e70a5e0d-p_e.jpg,25.761267,-80.194496,"$599,000",FL,Condo for sale,FOR_SALE,60 SW 13th St APT 3804,33130
"200 Biscayne Boulevard Way APT 3705, Miami, FL 33131",950,2.0,1,Klerigi Realty LLC,Miami,https://www.zillow.com/homedetails/200-Biscayne-Boulevard-Way-APT-3705-Miami-FL-33131/2080779373_zpid/,2080779373,https://photos.zillowstatic.com/fp/e6ad4d1a4167c57b353f47943d404f24-p_e.jpg,25.770521,-80.189545,"$650,000",FL,Condo for sale,FOR_SALE,200 Biscayne Boulevard Way APT 3705,33131
"10772 SW 61st Ter, Miami, FL 33173",1640,2.0,3,Miami Way Realty Inc.,Miami,https://www.zillow.com/homedetails/10772-SW-61st-Ter-Miami-FL-33173/44213035_zpid/,44213035,https://photos.zillowstatic.com/fp/fc08d06b4ab0028998ec34bee15fd2a2-p_e.jpg,25.710264,-80.36819,"$550,000",FL,House for sale,FOR_SALE,10772 SW 61st Ter,33173
"68 SE 6th St APT 2706, Miami, FL 33131",810,2.0,1,Compra Venta Miami,Miami,https://www.zillow.com/homedetails/68-SE-6th-St-APT-2706-Miami-FL-33131/162030334_zpid/,162030334,https://photos.zillowstatic.com/fp/234ced7e711460610c066aeccea8185f-p_e.jpg,25.768076,-80.19268,"$660,000",FL,Condo for sale,FOR_SALE,68 SE 6th St APT 2706,33131
"(undisclosed Address), Miami, FL 33127",1672,1.0,2,Miramar Realty Group,Miami,https://www.zillow.com/homedetails/Miami-FL-33127/43811615_zpid/,43811615,https://photos.zillowstatic.com/fp/886b678ac47f176ffe2344c57bc48ef1-p_e.jpg,,,"$149,900",FL,House for sale,FOR_SALE,(undisclosed Address),33127
"2700 NW 14th Ave, Miami, FL 33142",1895,,,Pioneer Invts Enterprises Inc,Miami,https://www.zillow.com/homedetails/2700-NW-14th-Ave-Miami-FL-33142/43816202_zpid/,43816202,https://photos.zillowstatic.com/fp/fbc2a3131cf1e3389a037417f5c4e0f9-p_e.jpg,25.80158,-80.21966,"$625,000",FL,Multi-family home for sale,FOR_SALE,2700 NW 14th Ave,33142
"335 S Biscayne Blvd APT 2900, Miami, FL 33131",1105,2.0,2,Axis Premiere Realty,Miami,https://www.zillow.com/homedetails/335-S-Biscayne-Blvd-APT-2900-Miami-FL-33131/70776427_zpid/,70776427,https://photos.zillowstatic.com/fp/5e6ac2aafbab081901b1787b67d035d0-p_e.jpg,25.771225,-80.18724,"$675,000",FL,Condo for sale,FOR_SALE,335 S Biscayne Blvd APT 2900,33131
"4 Bedroom (Level 3-50) Plan, Aria Reserve",2584,6.0,4,,Miami,https://www.zillow.com/community/aria-reserve/2068456049_zpid/,2068456049,https://photos.zillowstatic.com/fp/729a71071161e3c9fb1ffa9336e336d1-p_e.jpg,25.800165,-80.18591,"$2,140,900+",FL,New construction,FOR_SALE,"4 Bedroom (Level 3-50) Plan, Aria Reserve",33137
"10795 SW 108th Ave APT 105, Miami, FL 33176",1050,2.0,2,DK International Rlty Inc.,Miami,https://www.zillow.com/homedetails/10795-SW-108th-Ave-APT-105-Miami-FL-33176/64561619_zpid/,64561619,https://photos.zillowstatic.com/fp/c9754802c2c98fd34e92eb21cf5d5044-p_e.jpg,25.669167,-80.370094,"$255,000",FL,Condo for sale,FOR_SALE,10795 SW 108th Ave APT 105,33176
"(undisclosed Address), Miami, FL 33131",759,2.0,1,IPM Worldwide Properties,Miami,https://www.zillow.com/homedetails/Miami-FL-33131/247679043_zpid/,247679043,https://photos.zillowstatic.com/fp/35d1e05c52fa723be4f6ced5890f6c17-p_e.jpg,,,"$590,000",FL,Condo for sale,FOR_SALE,(undisclosed Address),33131
"(undisclosed Address), Miami, FL 33130",2970,,,Fausto Commercial Realty Consultants Inc,Miami,https://www.zillow.com/homedetails/Miami-FL-33130/2108948048_zpid/,2108948048,https://photos.zillowstatic.com/fp/b46d2c5f8dd32fff57ef6f3022da96be-p_e.jpg,,,"$700,000",FL,Multi-family home for sale,FOR_SALE,(undisclosed Address),33130
"1100 SW 93rd Ave, Miami, FL 33174",1602,2.0,4,Real Estate Services Inc,Miami,https://www.zillow.com/homedetails/1100-SW-93rd-Ave-Miami-FL-33174/44181207_zpid/,44181207,https://photos.zillowstatic.com/fp/3078b2bba74d4e01fac51bc63ef6e34e-p_e.jpg,25.759167,-80.346436,"$445,000",FL,Foreclosure,FOR_SALE,1100 SW 93rd Ave,33174
"7520 SW 56th Ct, Miami, FL 33143",2634,3.0,4,BHHS EWM Realty,Miami,https://www.zillow.com/homedetails/7520-SW-56th-Ct-Miami-FL-33143/79855767_zpid/,79855767,https://photos.zillowstatic.com/fp/0b781eaac487f284d129d2a371f5261b-p_e.jpg,25.701448,-80.28503,"$2,200,000",FL,Townhouse for sale,FOR_SALE,7520 SW 56th Ct,33143
"1010 SW 2nd Ave #805, Miami, FL 33130",766,1.0,1,BHHS EWM Realty,Miami,https://www.zillow.com/homedetails/1010-SW-2nd-Ave-805-Miami-FL-33130/247703240_zpid/,247703240,https://photos.zillowstatic.com/fp/572a07b88cc328a42e06556344d8cbf4-p_e.jpg,25.764074,-80.19781,"$399,900",FL,Condo for sale,FOR_SALE,1010 SW 2nd Ave #805,33130
"1080 Brickell Ave #4205, Miami, FL 33131",506,1.0,1,Harbour Residential Realty LLC,Miami,https://www.zillow.com/homedetails/1080-Brickell-Ave-4205-Miami-FL-33131/247650766_zpid/,247650766,https://photos.zillowstatic.com/fp/63e40f4d9dcdbf93f7fcb7cec5956bdb-p_e.jpg,25.762993,-80.1927,"$379,000",FL,Condo for sale,FOR_SALE,1080 Brickell Ave #4205,33131
"1513 NW 69th Ter, Miami, FL 33147",,,,The Keyes Company,Miami,https://www.zillow.com/homedetails/1513-NW-69th-Ter-Miami-FL-33147/155726716_zpid/,155726716,https://photos.zillowstatic.com/fp/bb44508b939583306f8e40a35980f53f-p_e.jpg,25.838099,-80.223724,"$200,000",FL,Lot / Land for sale,FOR_SALE,1513 NW 69th Ter,33147
"9611 SW 77th Ave APT 208A, Miami, FL 33156",998,2.0,2,Miami Bien Real Estate,Miami,https://www.zillow.com/homedetails/9611-SW-77th-Ave-APT-208A-Miami-FL-33156/44274435_zpid/,44274435,https://photos.zillowstatic.com/fp/0b57a489dcf9af7c53c3a7e9353b55eb-p_e.jpg,25.681541,-80.318375,"$275,000",FL,Condo for sale,FOR_SALE,9611 SW 77th Ave APT 208A,33156
"460 NE 28th St APT 2206, Miami, FL 33137",1073,2.0,2,TS International Realty,Miami,https://www.zillow.com/homedetails/460-NE-28th-St-APT-2206-Miami-FL-33137/121346734_zpid/,121346734,https://photos.zillowstatic.com/fp/d3feb7baedbfaeb8e34b8cfd3e258114-p_e.jpg,25.803843,-80.18741,"$760,000",FL,Condo for sale,FOR_SALE,460 NE 28th St APT 2206,33137
"7763 SW 99th St, Miami, FL 33156",0,3.0,4,"A & G Team Realty, LLC",Miami,https://www.zillow.com/homedetails/7763-SW-99th-St-Miami-FL-33156/306397880_zpid/,306397880,https://photos.zillowstatic.com/fp/b86c8c1fee4de55ac6b6d5219328357e-p_e.jpg,25.679102,-80.32013,"$1,275,000",FL,New construction,FOR_SALE,7763 SW 99th St,33156
"68 SE 6th St APT 1806, Miami, FL 33131",810,2.0,1,Nexvel  Properties LLC,Miami,https://www.zillow.com/homedetails/68-SE-6th-St-APT-1806-Miami-FL-33131/247680948_zpid/,247680948,https://photos.zillowstatic.com/fp/f0620ef113269c600d19dcea2be28803-p_e.jpg,25.768076,-80.19268,"$650,000",FL,Condo for sale,FOR_SALE,68 SE 6th St APT 1806,33131
"1100 S Miami Ave APT 4004, Miami, FL 33130",921,2.0,2,BHHS EWM Realty,Miami,https://www.zillow.com/homedetails/1100-S-Miami-Ave-APT-4004-Miami-FL-33130/121344070_zpid/,121344070,https://photos.zillowstatic.com/fp/97ab1e0c4f1fd58ba97646608742c357-p_e.jpg,25.763214,-80.19366,"$580,000",FL,Condo for sale,FOR_SALE,1100 S Miami Ave APT 4004,33130
"6460 SW 34th St, Miami, FL 33155",936,1.0,2,One Sotheby's International Realty,Miami,https://www.zillow.com/homedetails/6460-SW-34th-St-Miami-FL-33155/44187828_zpid/,44187828,https://photos.zillowstatic.com/fp/024d54f2b80a416272d4f7f6856c9e79-p_e.jpg,25.738213,-80.30053,"$650,000",FL,House for sale,FOR_SALE,6460 SW 34th St,33155
"801 NW 47th Ave APT 302W, Miami, FL 33126",768,1.0,2,"Rejoice Realty Group,  Inc.",Miami,https://www.zillow.com/homedetails/801-NW-47th-Ave-APT-302W-Miami-FL-33126/70773187_zpid/,70773187,https://photos.zillowstatic.com/fp/c833b3c2586b9f015295fdc3c555b3de-p_e.jpg,25.779926,-80.27149,"$189,000",FL,Condo for sale,FOR_SALE,801 NW 47th Ave APT 302W,33126
"117 NW 42nd Ave APT 507, Miami, FL 33126",703,1.0,1,Cotera Realty,Miami,https://www.zillow.com/homedetails/117-NW-42nd-Ave-APT-507-Miami-FL-33126/72562190_zpid/,72562190,https://photos.zillowstatic.com/fp/608ceceb7fa7f89b39388481d586f313-p_e.jpg,25.772907,-80.2633,"$289,000",FL,Condo for sale,FOR_SALE,117 NW 42nd Ave APT 507,33126
"1080 Brickell Ave UNIT 2407, Miami, FL 33131",748,2.0,2,Westside Estate Agency Florida,Miami,https://www.zillow.com/homedetails/1080-Brickell-Ave-UNIT-2407-Miami-FL-33131/247651941_zpid/,247651941,https://photos.zillowstatic.com/fp/d7ac29e87a2c3c99a36548cd25b916cc-p_e.jpg,25.762993,-80.1927,"$849,999",FL,Condo for sale,FOR_SALE,1080 Brickell Ave UNIT 2407,33131
